,NomeEstacao,CodEstacao,Bacia,SubBacia,Operadora,Responsavel,Municipio-UF,Latitude,Longitude,Altitude,CodRio,NomeRio,Origem,StatusEstacao
1,UHE BELO MONTE BR230,00351004,1,18,00594 - NORTE ENERGIA - NORTE ENERGIA,00594 - NORTE ENERGIA - NORTE ENERGIA,VITÓRIA DO XINGU-PA,-3.12670,-51.79060,33.00,0,None,Setor Elétrico,Ativo
2,UHE BELO MONTE SÍTIO PIMENTAL,00351005,1,18,00594 - NORTE ENERGIA - NORTE ENERGIA,00594 - NORTE ENERGIA - NORTE ENERGIA,VITÓRIA DO XINGU-PA,-3.37580,-51.94030,110.00,0,None,Setor Elétrico,Ativo
3,UHE BELO MONTE VISTA ALEGRE,00352009,1,18,00594 - NORTE ENERGIA - NORTE ENERGIA,00594 - NORTE ENERGIA - NORTE ENERGIA,ALTAMIRA-PA,-3.11860,-52.25250,125.00,0,None,Setor Elétrico,Ativo
4,UHE BELO MONTE SÃO FRANCISCO,00352010,1,18,00594 - NORTE ENERGIA - NORTE ENERGIA,00594 - NORTE ENERGIA - NORTE ENERGIA,ALTAMIRA-PA,-3.25330,-52.34890,124.00,0,None,Setor Elétrico,Ativo
5,UHE BELO MONTE JOARI,00652002,1,18,00594 - NORTE ENERGIA - NORTE ENERGIA,00594 - NORTE ENERGIA - NORTE ENERGIA,SÃO FÉLIX DO XINGÚ-PA,-6.56030,-52.07640,0.00,0,None,Setor Elétrico,Ativo
6,MÂNCIO LIMA,00772006,1,12,00380 - SEMA-AC - Secretaria de Meio Ambiente do Estado do Acre,00380 - SEMA-AC - Secretaria de Meio Ambiente do Estado do Acre,MÂNCIO LIMA-AC,-7.59360,-72.92610,216.00,0,None,RHN,Manutenção
7,SÃO LOURENÇO DA MATA II,00835048,3,39,00082 - CPRM - Cia de Pesquisa de Recursos Minerais,00001 - ANA - Agência Nacional de Águas ,SÃO LOURENÇO DA MATA-PE,-7.99860,-35.03190,70.00,0,None,RHN,Ativo
8,CARUARU,00835106,3,39,00082 - CPRM - Cia de Pesquisa de Recursos Minerais,00001 - ANA - Agência Nacional de Águas ,CARUARU-PE,-8.30280,-36.01080,545.00,0,None,RHN,Ativo
9,MORRINHOS,00946005,3,34,00082 - CPRM - Cia de Pesquisa de Recursos Minerais,00001 - ANA - Agência Nacional de Águas ,ALTO PARNAÍBA-MA,-9.62470,-46.29030,356.00,0,None,RHN,Ativo
10,SENA MADUREIRA,00968006,1,13,00380 - SEMA-AC - Secretaria de Meio Ambiente do Estado do Acre,00380 - SEMA-AC - Secretaria de Meio Ambiente do Estado do Acre,SENA MADUREIRA-AC,-9.05860,-68.65920,190.00,0,None,RHN,Ativo
11,SANTA ROSA,00970003,1,13,00380 - SEMA-AC - Secretaria de Meio Ambiente do Estado do Acre,00380 - SEMA-AC - Secretaria de Meio Ambiente do Estado do Acre,SANTA ROSA DO PURUS-AC,-9.43860,-70.49220,219.00,0,None,RHN,Ativo
12,JORDÃO,00971002,1,12,00380 - SEMA-AC - Secretaria de Meio Ambiente do Estado do Acre,00380 - SEMA-AC - Secretaria de Meio Ambiente do Estado do Acre,JORDÃO-AC,-9.19389,-71.94917,239.00,0,None,RHN,Ativo
13,UHE ESTREITO RIO PONTE ALTA,01047009,2,22,00791 - CONS.CESTE - CONS.CESTE,00791 - CONS.CESTE - CONS.CESTE,PONTE ALTA DO TOCANTINS-TO,-10.74610,-47.53720,316.00,0,None,Setor Elétrico,Ativo
14,UHE COLIDER METEOROLÓGICA,01055005,1,17,00028 - COPEL - COPEL,00028 - COPEL - COPEL,COLIDER-MT,-10.95470,-55.77810,0.00,0,None,Setor Elétrico,Ativo
15,PCH ÂNGELO CASSOL MONTANTE,01162007,1,15,00768 - ÂNGELO CASSOL - ÂNGELO CASSOL,00768 - ÂNGELO CASSOL - ÂNGELO CASSOL,ALTA FLORESTA D''OESTE-RO,-11.92920,-62.08780,292.00,0,None,Setor Elétrico,Ativo
16,PCH MONTE BELO MONTANTE,01162008,1,15,00307 - ELETROSSOL - ELETROSSOL,00307 - ELETROSSOL - ELETROSSOL,ALTA FLORESTA D''OESTE-RO,-11.95560,-62.17940,316.00,0,None,Setor Elétrico,Ativo
17,PCH SALDANHA PLU,01162011,1,15,01109 - HIDROLUZ - Hidroluz Centrais Elétricas Ltda.,01109 - HIDROLUZ - Hidroluz Centrais Elétricas Ltda.,ALTA FLORESTA D''OESTE-RO,-11.95860,-62.18390,310.00,0,None,Setor Elétrico,Ativo
18,PCH CABIXI MONTANTE,01260008,1,15,00686 - CASSOL - CASSOL,00686 - CASSOL - CASSOL,VILHENA-RO,-12.89920,-60.10830,612.00,0,None,Setor Elétrico,Ativo
19,PCH CASCATA CHUPINGUAIA PLU,01260012,1,15,00561 - CHUPINGUAIA - CHUPINGUAIA,00561 - CHUPINGUAIA - CHUPINGUAIA,CHUPINGUAIA-RO,-12.85420,-60.85060,267.00,0,None,Setor Elétrico,Ativo
20,"PCH SANTA LUZIA D""""OESTE PLU",01261002,1,15,00559 - BERGAMIN - BERGAMIN,00559 - BERGAMIN - BERGAMIN,ALTO ALEGRE DOS PARECIS-RO,-12.34330,-61.76920,356.00,0,None,Setor Elétrico,Ativo
21,UHE MANSO MET,01455013,6,66,00809 - CONS.MANSO - CONS.MANSO,00809 - CONS.MANSO - CONS.MANSO,CHAPADA DOS GUIMARÃES-MT,-14.86140,-55.78940,344.00,0,None,Setor Elétrico,Ativo
22,PCH MACHADO MINEIRO PASSAGEM DAS ÉGUAS,01542030,5,53,00239 - HORIZONTES - Horizontes Energia S.A.,00239 - HORIZONTES - Horizontes Energia S.A.,RIO DO PRADO-MG,-15.60920,-42.54170,0.00,0,None,Setor Elétrico,Ativo
23,ANA SEDE,01547032,6,60,00001 - ANA - Agência Nacional de Águas ,00001 - ANA - Agência Nacional de Águas ,BRASÍLIA-DF,-15.81810,-47.94500,1150.00,0,None,GDH,Ativo
24,ANA SEDE (COTA ONLINE),01547032,6,60,00001 - ANA - Agência Nacional de Águas ,00001 - ANA - Agência Nacional de Águas ,BRASÍLIA-DF,-15.81805,-47.94500,1150.00,0,None,CotaOnline,Manutenção
25,ANA SEDE - TELEMÉTRICA,01547079,6,60,00001 - ANA - Agência Nacional de Águas ,00001 - ANA - Agência Nacional de Águas ,BRASÍLIA-DF,-15.81810,-47.94500,1150.00,0,None,RHN,Ativo
26,UHE SERRA DA MESA BARRO ALTO,01548050,2,20,00069 - FURNAS - Furnas Centrais Elétricas S.A.,00069 - FURNAS - Furnas Centrais Elétricas S.A.,BARRO ALTO-GO,-15.11750,-48.92420,584.00,0,None,Setor Elétrico,Ativo
27,UHE BATALHA CRISTALINA,01647002,6,60,00069 - FURNAS - Furnas Centrais Elétricas S.A.,00069 - FURNAS - Furnas Centrais Elétricas S.A.,CRISTALINA-GO,-16.78810,-47.60330,1173.00,0,None,Setor Elétrico,Ativo
28,UHE BATALHA FAZENDA BURITI,01647023,6,60,00069 - FURNAS - Furnas Centrais Elétricas S.A.,00069 - FURNAS - Furnas Centrais Elétricas S.A.,CRISTALINA-GO,-16.96830,-47.34190,881.00,0,None,Setor Elétrico,Ativo
29,"UHE BATALHA SÍTIO OLHO D"""" ÁGUA",01647024,6,60,00069 - FURNAS - Furnas Centrais Elétricas S.A.,00069 - FURNAS - Furnas Centrais Elétricas S.A.,UNAÍ-MG,-16.38920,-47.15080,974.00,0,None,Setor Elétrico,Ativo
30,UHE SERRA DO FACÃO CLIMATOLÓGICA,01747012,6,60,00334 - SERRA DO FACÃO - SERRA DO FACÃO,00334 - SERRA DO FACÃO - SERRA DO FACÃO,CATALÃO-GO,-17.87720,-47.70140,0.00,0,None,Setor Elétrico,Ativo
31,UHE ITUMBIARA PIRACANJUBA,01749015,6,60,00069 - FURNAS - Furnas Centrais Elétricas S.A.,00069 - FURNAS - Furnas Centrais Elétricas S.A.,PIRACANJUBA-GO,-17.31060,-49.02190,730.00,0,None,Setor Elétrico,Ativo
32,PCH TRONQUEIRAS SE GOVERNADOR VALADARES,01841029,5,56,01061 - CEMIG LESTE - CEMIG  Geração Leste S.A.,01061 - CEMIG LESTE - CEMIG  Geração Leste S.A.,GOVERNADOR VALADARES-MG,-18.85500,-41.96000,0.00,0,None,Setor Elétrico,Ativo
33,UHE ITUMBIARA TUPACIGUARA,01848055,6,60,00069 - FURNAS - Furnas Centrais Elétricas S.A.,00069 - FURNAS - Furnas Centrais Elétricas S.A.,TUPACIGUARA-MG,-18.62170,-48.68470,917.00,0,None,Setor Elétrico,Ativo
34,UHE ITUMBIARA ÁGUA LIMPA,01848059,6,60,00069 - FURNAS - Furnas Centrais Elétricas S.A.,00069 - FURNAS - Furnas Centrais Elétricas S.A.,ÁGUA LIMPA-GO,-18.07470,-48.75640,711.00,0,None,Setor Elétrico,Ativo
35,UHE ITUMBIARA FAZENDA ROSAS,01848060,6,60,00069 - FURNAS - Furnas Centrais Elétricas S.A.,00069 - FURNAS - Furnas Centrais Elétricas S.A.,ANHANGUERA-GO,-18.32330,-48.22640,0.00,0,None,Setor Elétrico,Ativo
36,CGH SANTA LUZIA SE ITUIUTABA,01849035,6,60,00023 - CEMIG - CEMIG,00023 - CEMIG - CEMIG,ITUIUTABA-MG,-18.96360,-49.44830,0.00,0,None,Setor Elétrico,Ativo
37,UHE SÁ CARVALHO SE MESQUITA,01942033,5,56,00624 - SÁ CARVALHO - SÁ CARVALHO,00624 - SÁ CARVALHO - SÁ CARVALHO,MESQUITA-MG,-19.41690,-42.54920,0.00,0,None,Setor Elétrico,Ativo
38,UHE SÁ CARVALHO JUSANTE,01942049,5,56,00624 - SÁ CARVALHO - SÁ CARVALHO,00624 - SÁ CARVALHO - SÁ CARVALHO,ANTÔNIO DIAS-MG,-19.63470,-42.80610,0.00,0,None,Setor Elétrico,Ativo
39,CGH SANTA LUZIA SE SERRA DO SALITRE,01946024,6,60,00023 - CEMIG - CEMIG,00023 - CEMIG - CEMIG,SERRA DO SALITRE-MG,-19.11830,-46.68170,0.00,0,None,Setor Elétrico,Ativo
40,PCH MARTINS SE UBERABA,01947032,6,61,01071 - CEMIG OESTE - CEMIG Geração Oeste S.A.,01071 - CEMIG OESTE - CEMIG Geração Oeste S.A.,UBERABA-MG,-19.71970,-47.91420,0.00,0,None,Setor Elétrico,Ativo
41,ROSÁRIO DA LIMEIRA,02042051,5,58,00101 - IGAM-MG - Instituto Mineiro de Gestão das Águas,00101 - IGAM-MG - Instituto Mineiro de Gestão das Águas,ROSÁRIO DA LIMEIRA-MG,-20.97888,-42.50944,0.00,0,None,RHN,Ativo
42,CONSELHEIRO LAFAIETE,02043005,4,40,00082 - CPRM - Cia de Pesquisa de Recursos Minerais,00001 - ANA - Agência Nacional de Águas ,CONSELHEIRO LAFAIETE-MG,-20.62500,-43.75360,996.00,0,None,RHN,Ativo
43,UHE PETI SÃO GONÇALO DO RIO ACIMA,02043063,5,56,01061 - CEMIG LESTE - CEMIG  Geração Leste S.A.,01061 - CEMIG LESTE - CEMIG  Geração Leste S.A.,BARÃO DE COCAIS-MG,-20.02530,-43.53920,0.00,0,None,Setor Elétrico,Ativo
44,UHE CAJURU FAZENDA CAMPO GRANDE,02044063,4,40,01071 - CEMIG OESTE - CEMIG Geração Oeste S.A.,01071 - CEMIG OESTE - CEMIG Geração Oeste S.A.,PASSA TEMPO-MG,-20.62610,-44.43780,0.00,0,None,Setor Elétrico,Ativo
45,LAGOA DOURADA,02044079,4,40,00101 - IGAM-MG - Instituto Mineiro de Gestão das Águas,00101 - IGAM-MG - Instituto Mineiro de Gestão das Águas,LAGOA DOURADA-MG,-20.91027,-44.07750,0.00,13330000,RIO ACRE,RHN,Ativo
46,CGH ANIL SE PIMENTA,02045031,6,61,00023 - CEMIG - CEMIG,00023 - CEMIG - CEMIG,PIMENTA-MG,-20.46830,-45.79310,0.00,0,None,Setor Elétrico,Ativo
47,UHE MARECHAL MASCARENHAS DE MORAES ITAÚ DE MINAS,02046031,6,61,00069 - FURNAS - Furnas Centrais Elétricas S.A.,00069 - FURNAS - Furnas Centrais Elétricas S.A.,ITAÚ DE MINAS-MG,-20.74890,-46.74360,0.00,0,None,Setor Elétrico,Ativo
48,UHE LUIZ CARLOS BARRETO DE CARVALHO MET,02047115,6,61,00069 - FURNAS - Furnas Centrais Elétricas S.A.,00069 - FURNAS - Furnas Centrais Elétricas S.A.,PEDREGULHO-SP,-20.15830,-47.27810,725.00,0,None,Setor Elétrico,Ativo
49,UHE PORTO COLÔMBIA PLU,02048096,6,61,00069 - FURNAS - Furnas Centrais Elétricas S.A.,00069 - FURNAS - Furnas Centrais Elétricas S.A.,PLANURA-MG,-20.11920,-48.57310,0.00,0,None,Setor Elétrico,Ativo
50,UHE MARIMBONDO MET,02049070,6,61,00069 - FURNAS - Furnas Centrais Elétricas S.A.,00069 - FURNAS - Furnas Centrais Elétricas S.A.,FRONTEIRA-MG,-20.29250,-49.19670,454.00,0,None,Setor Elétrico,Ativo
51,SÃO SEBASTIÃO DA VARGEM ALEGRE,02142096,5,58,00101 - IGAM-MG - Instituto Mineiro de Gestão das Águas,00101 - IGAM-MG - Instituto Mineiro de Gestão das Águas,SÃO SEBASTIÃO DA VARGEM ALEGRE-MG,-21.07250,-42.63694,0.00,0,None,RHN,Ativo
52,MIRAI,02142097,5,58,00101 - IGAM-MG - Instituto Mineiro de Gestão das Águas,00101 - IGAM-MG - Instituto Mineiro de Gestão das Águas,MIRAÍ-MG,-21.19472,-42.61583,0.00,0,None,RHN,Ativo
53,ITAOCARA,02142158,5,58,00082 - CPRM - Cia de Pesquisa de Recursos Minerais,00001 - ANA - Agência Nacional de Águas ,ITAOCARA-RJ,-21.66580,-42.08110,65.00,0,None,RHN,Ativo
54,PCH MARMELOS SE JUIZ DE FORA,02143064,5,58,01060 - CEMIG SUL - CEMIG Geração Sul S.A.,01060 - CEMIG SUL - CEMIG Geração Sul S.A.,JUIZ DE FORA-MG,-21.71140,-43.40310,0.00,0,None,Setor Elétrico,Ativo
55,"PCH MARMELOS CHAPÉU D""""UVAS",02143162,5,58,01060 - CEMIG SUL - CEMIG Geração Sul S.A.,01060 - CEMIG SUL - CEMIG Geração Sul S.A.,JUIZ DE FORA-MG,-21.58530,-43.52720,746.00,0,None,Setor Elétrico,Ativo
56,UHE LUIZ CARLOS BARRETO DE CARVALHO BOA ESPERANÇA,02145048,6,61,00069 - FURNAS - Furnas Centrais Elétricas S.A.,00069 - FURNAS - Furnas Centrais Elétricas S.A.,BOA ESPERANÇA-MG,-21.08780,-45.56860,772.00,0,None,Setor Elétrico,Ativo
57,PCH WALTER ROSSI (ANTAS II)  BARRAGEM DO CIPÓ,02146112,6,61,00232 - DMEPC - DMEPC,00232 - DMEPC - DMEPC,POÇOS DE CALDAS-MG,-21.85280,-46.60940,1268.00,0,None,Setor Elétrico,Ativo
58,FAZENDA DAS FLORES,02147012,6,61,00010 - DAEE-SP - Departamento de Águas e Energia Elétrica do E...,00010 - DAEE-SP - Departamento de Águas e Energia Elétrica do E...,CRAVINHOS-SP,-21.33330,-47.78330,720.00,0,None,RHN,Ativo
59,FAZENDA RESFRIADO,02147013,6,61,00010 - DAEE-SP - Departamento de Águas e Energia Elétrica do E...,00010 - DAEE-SP - Departamento de Águas e Energia Elétrica do E...,RIBEIRÃO PRETO-SP,-21.30000,-47.93330,590.00,0,None,RHN,Ativo
60,CRAVINHOS,02147014,6,61,00010 - DAEE-SP - Departamento de Águas e Energia Elétrica do E...,00010 - DAEE-SP - Departamento de Águas e Energia Elétrica do E...,CRAVINHOS-SP,-21.36670,-47.71670,700.00,0,None,RHN,Ativo
61,UHE IBITINGA ARARAQUARA,02148171,6,62,00143 - AES TIETÊ - AES Tietê Energia S.A.,00143 - AES TIETÊ - AES Tietê Energia S.A.,ARARAQUARA-SP,-21.77190,-48.25470,658.00,0,None,Setor Elétrico,Ativo
62,UHE PROMISSÃO LINS,02149097,6,62,00143 - AES TIETÊ - AES Tietê Energia S.A.,00143 - AES TIETÊ - AES Tietê Energia S.A.,LINS-SP,-21.71390,-49.72030,542.00,0,None,Setor Elétrico,Ativo
63,UHE NOVA AVANHANDAVA COROADOS,02150091,6,62,00143 - AES TIETÊ - AES Tietê Energia S.A.,00143 - AES TIETÊ - AES Tietê Energia S.A.,COROADOS-SP,-21.40420,-50.26580,427.00,0,None,Setor Elétrico,Ativo
64,UHE SIMPLÍCIO FAZENDA SANTA MÔNICA,02243507,5,58,00069 - FURNAS - Furnas Centrais Elétricas S.A.,00069 - FURNAS - Furnas Centrais Elétricas S.A.,VALENÇA-RJ,-22.36080,-43.69780,0.00,0,None,Setor Elétrico,Ativo
65,UHE SIMPLÍCIO METEOROLÓGICA,02243508,5,58,00069 - FURNAS - Furnas Centrais Elétricas S.A.,00069 - FURNAS - Furnas Centrais Elétricas S.A.,SAPUCAIA-RJ,-22.03890,-43.00060,414.00,0,None,Setor Elétrico,Ativo
66,UEL VIGÁRIO PASSO TRÊS,02244107,5,58,00008 - LIGHT - Light Energia S.A,00008 - LIGHT - Light Energia S.A,RIO CLARO-RJ,-22.69250,-44.00690,450.00,0,None,Setor Elétrico,Ativo
67,UHE FUNIL RESENDE AEROPORTO,02244161,5,58,00069 - FURNAS - Furnas Centrais Elétricas S.A.,00069 - FURNAS - Furnas Centrais Elétricas S.A.,RESENDE-RJ,-22.47560,-44.47360,0.00,0,None,Setor Elétrico,Ativo
68,UHE FUNIL GUARATINGUETÁ,02245032,5,58,00069 - FURNAS - Furnas Centrais Elétricas S.A.,00069 - FURNAS - Furnas Centrais Elétricas S.A.,GUARATINGUETÁ-SP,-22.80890,-45.20080,558.00,0,None,Setor Elétrico,Ativo
69,UHE IBITINGA ITAQUERI DA SERRA,02247201,6,62,00143 - AES TIETÊ - AES Tietê Energia S.A.,00143 - AES TIETÊ - AES Tietê Energia S.A.,ITIRAPINA-SP,-22.31500,-47.91720,967.00,0,None,Setor Elétrico,Ativo
70,UHE PROMISSÃO NOVO HORIZONTE,02249112,6,62,00143 - AES TIETÊ - AES Tietê Energia S.A.,00143 - AES TIETÊ - AES Tietê Energia S.A.,NOVO HORIZONTE-SP,-21.42250,-49.08750,500.00,0,None,Setor Elétrico,Ativo
71,UHE SALTO GRANDE FAZENDA SÃO PAULO,02249113,6,64,00131 - PARANAPANEMA - Rio Paranapanema Energia S.A,00131 - PARANAPANEMA - Rio Paranapanema Energia S.A,ÁGUAS DE SANTA BARBARA-SP,-22.76190,-49.24310,643.00,0,None,Setor Elétrico,Ativo
72,UHE CANOAS I CÂNDIDO MOTTA,02250097,6,64,00800 - CONS.CANOAS - CONS.CANOAS,00800 - CONS.CANOAS - CONS.CANOAS,PLATINA-SP,-22.75330,-50.46940,437.00,0,None,Setor Elétrico,Ativo
73,UHE CANOAS I PLATINA,02250098,6,64,00800 - CONS.CANOAS - CONS.CANOAS,00800 - CONS.CANOAS - CONS.CANOAS,PLATINA-SP,-22.60810,-50.18080,472.00,0,None,Setor Elétrico,Ativo
74,UHE CANOAS II IBIRAREMA,02250099,6,64,00800 - CONS.CANOAS - CONS.CANOAS,00800 - CONS.CANOAS - CONS.CANOAS,IBIRAREMA-SP,-22.86640,-50.09360,432.00,0,None,Setor Elétrico,Ativo
75,UHE CANOAS II PALMITAL,02250100,6,64,00800 - CONS.CANOAS - CONS.CANOAS,00800 - CONS.CANOAS - CONS.CANOAS,PALMITAL-SP,-22.72220,-50.13580,530.00,0,None,Setor Elétrico,Ativo
76,UHE TAQUARUÇU ANHUMAS,02251080,6,64,00131 - PARANAPANEMA - Rio Paranapanema Energia S.A,00131 - PARANAPANEMA - Rio Paranapanema Energia S.A,ANHUMAS-SP,-22.29170,-51.42420,451.00,0,None,Setor Elétrico,Ativo
77,UHE TAQUARUÇU CENTENÁRIO DO SUL,02251081,6,64,00131 - PARANAPANEMA - Rio Paranapanema Energia S.A,00131 - PARANAPANEMA - Rio Paranapanema Energia S.A,CENTENÁRIO DO SUL-PR,-22.83170,-51.60280,514.00,0,None,Setor Elétrico,Ativo
78,PCH PORTO GÓES BOM JARDIM,02346469,6,62,00084 - EMAE - EMAE,00084 - EMAE - EMAE,JUNDIAÍ-SP,-23.15250,-46.99000,732.55,0,None,Setor Elétrico,Ativo
79,UHE JURUMIRIM BREJAUVA,02347192,6,64,00131 - PARANAPANEMA - Rio Paranapanema Energia S.A,00131 - PARANAPANEMA - Rio Paranapanema Energia S.A,SÃO MIGUEL ARCANJO-SP,-23.78560,-47.63560,745.00,0,None,Setor Elétrico,Ativo
80,UHE CANOAS I BAIRRO MORRO CAVADO,02348090,6,64,00800 - CONS.CANOAS - CONS.CANOAS,00800 - CONS.CANOAS - CONS.CANOAS,BURI-SP,-23.71220,-48.70420,666.00,0,None,Setor Elétrico,Ativo
81,UHE CANOAS II FAZENDA TRÊS LAGOAS,02348092,6,64,00800 - CONS.CANOAS - CONS.CANOAS,00800 - CONS.CANOAS - CONS.CANOAS,ANGATUBA-SP,-23.42830,-48.44000,712.00,0,None,Setor Elétrico,Ativo
82,UHE CHAVANTES FAZENDA SÃO JOÃO,02349076,6,64,00131 - PARANAPANEMA - Rio Paranapanema Energia S.A,00131 - PARANAPANEMA - Rio Paranapanema Energia S.A,RIVERSUL-SP,-23.85170,-49.39500,659.80,0,None,Setor Elétrico,Ativo
83,PCH APUCARANINHA MONTANTE 2,02351080,6,64,00028 - COPEL - COPEL,00028 - COPEL - COPEL,APUCARANA-PR,-23.51750,-51.53030,0.00,0,None,Setor Elétrico,Ativo
84,UHE CANOAS I BAIRRO CACHIMBA,02448071,6,64,00800 - CONS.CANOAS - CONS.CANOAS,00800 - CONS.CANOAS - CONS.CANOAS,APIAÍ-SP,-24.48310,-48.77690,880.00,0,None,Setor Elétrico,Ativo
85,UHE CANOAS I BAIRRO CANTAGALO,02448072,6,64,00800 - CONS.CANOAS - CONS.CANOAS,00800 - CONS.CANOAS - CONS.CANOAS,ITAPEVA-SP,-24.09360,-48.63890,950.00,0,None,Setor Elétrico,Ativo
86,UHE CANOAS II CAPÃO LIMPO,02448073,6,64,00800 - CONS.CANOAS - CONS.CANOAS,00800 - CONS.CANOAS - CONS.CANOAS,CAPÃO BONITO-SP,-24.07140,-48.18250,635.00,0,None,Setor Elétrico,Ativo
87,SENGES,02449044,6,64,00052 - AGUASPARANÁ - Instituto das Águas do Paraná (antiga SUDERHSA),00052 - AGUASPARANÁ - Instituto das Águas do Paraná (antiga SUDERHSA),SENGES-PR,-24.10000,-49.46670,650.00,0,None,RHN,Manutenção
88,UHE CHAVANTES BERTANHOLI,02449067,6,64,00131 - PARANAPANEMA - Rio Paranapanema Energia S.A,00131 - PARANAPANEMA - Rio Paranapanema Energia S.A,ITARARÉ-SP,-24.09030,-49.32920,725.00,0,None,Setor Elétrico,Ativo
89,BOM JARDIM MONTANTE,02450009,6,64,00052 - AGUASPARANÁ - Instituto das Águas do Paraná (antiga SUDERHSA),00052 - AGUASPARANÁ - Instituto das Águas do Paraná (antiga SUDERHSA),TIBAGI-PR,-24.67780,-50.48440,750.00,0,None,RHN,Ativo
90,UHE ITAIPU MANOEL RIBAS,02451057,6,64,00090 - ITAIPU - ITAIPU,00090 - ITAIPU - ITAIPU,MANOEL RIBAS-PR,-24.51330,-51.66500,878.00,0,None,Setor Elétrico,Ativo
91,UHE ITAIPU SANTA MARIA,02451059,6,64,00090 - ITAIPU - ITAIPU,00090 - ITAIPU - ITAIPU,SANTA MARIA DO OESTE-PR,-24.93330,-51.88330,550.00,0,None,Setor Elétrico,Ativo
92,UHE ITAIPU UBIRATÃ,02452062,6,64,00090 - ITAIPU - ITAIPU,00090 - ITAIPU - ITAIPU,UBIRATÃ-PR,-24.55330,-52.98580,530.00,0,None,Setor Elétrico,Ativo
93,CGH MARUMBI GUARATUBA,02548079,8,82,00028 - COPEL - COPEL,00028 - COPEL - COPEL,GUARATUBA-PR,-25.84530,-48.58030,0.00,0,None,Setor Elétrico,Ativo
94,CGH MARUMBI ANTONINA,02548098,8,82,00028 - COPEL - COPEL,00028 - COPEL - COPEL,ANTONINA-PR,-25.24330,-48.75220,0.00,0,None,Setor Elétrico,Ativo
95,UHE SALTO SANTIAGO GUARAPUAVA,02551015,6,65,00112 - ENGIE - Engie Brasil Energia S.A.,00112 - ENGIE - Engie Brasil Energia S.A.,GUARAPUAVA-PR,-25.36560,-51.49560,1051.00,0,None,Setor Elétrico,Ativo
96,UHE SALTO SANTIAGO GOIOXIM,02551063,6,65,00112 - ENGIE - Engie Brasil Energia S.A.,00112 - ENGIE - Engie Brasil Energia S.A.,GUARAPUAVA-PR,-25.24060,-51.92750,917.00,0,None,Setor Elétrico,Ativo
97,UHE SALTO OSÓRIO PINHÃO,02551069,6,65,00112 - ENGIE - Engie Brasil Energia S.A.,00112 - ENGIE - Engie Brasil Energia S.A.,PINHÃO-PR,-25.66170,-51.66220,1070.00,0,None,Setor Elétrico,Ativo
98,UHE FUNDÃO GUARAPUAVA,02551070,6,65,00289 - ELEJOR - ELEJOR,00289 - ELEJOR - ELEJOR,GUARAPUAVA-PR,-25.38470,-51.49390,0.00,0,None,Setor Elétrico,Ativo
99,UHE FUNDÃO PINHÃO,02551071,6,65,00289 - ELEJOR - ELEJOR,00289 - ELEJOR - ELEJOR,PINHÃO-PR,-25.64920,-51.96250,0.00,0,None,Setor Elétrico,Ativo
100,UHE SANTA CLARA ENTRE RIOS,02551072,6,65,00289 - ELEJOR - ELEJOR,00289 - ELEJOR - ELEJOR,GUARAPUAVA-PR,-25.54580,-51.48830,0.00,0,None,Setor Elétrico,Ativo
101,UHE SALTO OSÓRIO LARANJEIRAS DO SUL,02552009,6,65,00112 - ENGIE - Engie Brasil Energia S.A.,00112 - ENGIE - Engie Brasil Energia S.A.,LARANJEIRAS DO SUL-PR,-25.39780,-52.43500,810.00,0,None,Setor Elétrico,Ativo
102,UHE SALTO SANTIAGO CHOPINZINHO PLU,02552030,6,65,00112 - ENGIE - Engie Brasil Energia S.A.,00112 - ENGIE - Engie Brasil Energia S.A.,CHOPINZINHO-PR,-25.86000,-52.52690,738.00,0,None,Setor Elétrico,Ativo
103,UHE SALTO SANTIAGO FOZ DO JORDÃO,02552055,6,65,00112 - ENGIE - Engie Brasil Energia S.A.,00112 - ENGIE - Engie Brasil Energia S.A.,FOZ DO JORDÃO-PR,-25.77470,-52.11390,615.00,0,None,Setor Elétrico,Ativo
104,UHE ITÁ CAÇADOR PLU,02650035,7,72,00804 - CONS.ITÁ - CONS.ITÁ,00804 - CONS.ITÁ - CONS.ITÁ,CAÇADOR-SC,-26.81920,-50.98560,960.00,0,None,Setor Elétrico,Ativo
105,COOPERATIVA TRITÍCOLA SANANDUVA,02751063,7,72,00266 - SEMA-RS - SEMA-RS,00266 - SEMA-RS - SEMA-RS,SANANDUVA-RS,-27.95890,-51.79560,0.00,0,None,RHN,Ativo
106,PARQUE DE EVENTOS PINHAL DA SERRA,02751066,7,70,00266 - SEMA-RS - SEMA-RS,00266 - SEMA-RS - SEMA-RS,PINHAL DA SERRA-RS,-27.87920,-51.17690,0.00,0,None,RHN,Ativo
107,UHE FOZ DO CHAPECÓ NONOAI,02752032,7,73,00442 - FOZ DO CHAPECÓ - FOZ DO CHAPECÓ,00442 - FOZ DO CHAPECÓ - FOZ DO CHAPECÓ,NONOAI-RS,-27.33250,-52.78720,594.00,0,None,Setor Elétrico,Ativo
108,UHE ITÁ ERECHIM PLU,02752035,7,73,00804 - CONS.ITÁ - CONS.ITÁ,00804 - CONS.ITÁ - CONS.ITÁ,ERECHIM-RS,-27.65750,-52.32030,767.00,0,None,Setor Elétrico,Ativo
109,COOPAC CONSTANTINA,02752060,7,74,00266 - SEMA-RS - SEMA-RS,00266 - SEMA-RS - SEMA-RS,CONSTANTINA-RS,-27.72530,-52.97810,0.00,0,None,RHN,Ativo
110,AGROP. PAPAGAIO CHARÕA SARANDI,02752061,7,74,00266 - SEMA-RS - SEMA-RS,00266 - SEMA-RS - SEMA-RS,SARANDI-RS,-27.92530,-52.82000,0.00,0,None,RHN,Ativo
111,PREFEITURA BARRA DO RIO AZUL,02752062,7,73,00266 - SEMA-RS - SEMA-RS,00266 - SEMA-RS - SEMA-RS,BARRA DO RIO AZUL-RS,-27.41000,-52.41560,0.00,0,None,RHN,Ativo
112,UHE FOZ DO CHAPECÓ CAIBI,02753029,7,74,00442 - FOZ DO CHAPECÓ - FOZ DO CHAPECÓ,00442 - FOZ DO CHAPECÓ - FOZ DO CHAPECÓ,CAIBI-SC,-27.07470,-53.23920,369.00,0,None,Setor Elétrico,Ativo
113,PREFEITURA CERRO GRANDE,02753053,7,74,00266 - SEMA-RS - SEMA-RS,00266 - SEMA-RS - SEMA-RS,CERRO GRANDE-RS,-27.61030,-53.16670,0.00,0,None,RHN,Ativo
114,POUSADA APARADOS DA SERRA S.J. AUSENTES,02849066,7,70,00266 - SEMA-RS - SEMA-RS,00266 - SEMA-RS - SEMA-RS,SÃO JOSÉ DOS AUSENTES-RS,-28.60640,-49.82060,0.00,0,None,RHN,Ativo
115,BRIGADA MILITAR BOM JESUS,02850048,8,86,00266 - SEMA-RS - SEMA-RS,00266 - SEMA-RS - SEMA-RS,BOM JESUS-RS,-28.67170,-50.43360,0.00,0,None,RHN,Ativo
116,UHE MACHADINHO LAGOA VERMELHA,02851061,7,72,00808 - CONS.MACHADINHO - CONS.MACHADINHO,00808 - CONS.MACHADINHO - CONS.MACHADINHO,LAGOA VERMELHA-RS,-28.22220,-51.51250,805.00,0,None,Setor Elétrico,Ativo
117,SERAFINA CORRÊA,02851073,8,86,00082 - CPRM - Cia de Pesquisa de Recursos Minerais,00001 - ANA - Agência Nacional de Águas ,SERAFINA CORRÊA-RS,-28.70810,-51.94610,535.00,0,None,RHN,Ativo
118,PARQUE DE RODEIOS ESMERALDA,02851079,7,70,00266 - SEMA-RS - SEMA-RS,00266 - SEMA-RS - SEMA-RS,ESMERALDA-RS,-28.06530,-51.17000,0.00,0,None,RHN,Ativo
119,AULER,02852004,8,86,00082 - CPRM - Cia de Pesquisa de Recursos Minerais,00001 - ANA - Agência Nacional de Águas ,SOLEDADE-RS,-28.80390,-52.38170,700.00,0,None,RHN,Ativo
120,UHE PASSO FUNDO PLU,02852057,7,73,00112 - ENGIE - Engie Brasil Energia S.A.,00112 - ENGIE - Engie Brasil Energia S.A.,PASSO FUNDO-RS,-28.22670,-52.40330,684.00,0,None,Setor Elétrico,Ativo
121,AEROCLUBE CARAZINHO,02852074,8,85,00266 - SEMA-RS - SEMA-RS,00266 - SEMA-RS - SEMA-RS,CARAZINHO-RS,-28.32250,-52.81640,0.00,0,None,RHN,Ativo
122,POLO UAB TAPEJARA,02852075,7,72,00266 - SEMA-RS - SEMA-RS,00266 - SEMA-RS - SEMA-RS,TAPEJARA-RS,-28.08920,-52.00610,0.00,0,None,RHN,Ativo
123,INSTITUTO FEDERAL PANAMBI,02853052,7,75,00266 - SEMA-RS - SEMA-RS,00266 - SEMA-RS - SEMA-RS,PANAMBI-RS,-28.28170,-53.51580,0.00,0,None,RHN,Ativo
124,FAZENDA ROOS SANTA BÁRBARA DO SUL,02853053,8,85,00266 - SEMA-RS - SEMA-RS,00266 - SEMA-RS - SEMA-RS,SANTA BARBARA DO SUL-RS,-28.18330,-53.22420,0.00,0,None,RHN,Ativo
125,ESCOLA CAPÃO DO CIPÓ,02854031,7,75,00266 - SEMA-RS - SEMA-RS,00266 - SEMA-RS - SEMA-RS,CAPÃO DO CIPÓ-RS,-28.94170,-54.55780,0.00,0,None,RHN,Ativo
126,COOPATRIGO BOSSOROCA,02854032,7,75,00266 - SEMA-RS - SEMA-RS,00266 - SEMA-RS - SEMA-RS,BOSSOROCA-RS,-28.73250,-54.91170,0.00,0,None,RHN,Ativo
127,SANTA TECLA TUPANCIRETÃ,02854036,7,75,00266 - SEMA-RS - SEMA-RS,00266 - SEMA-RS - SEMA-RS,TUPANCIRETA-RS,-28.90030,-54.15890,0.00,0,None,RHN,Ativo
128,CRAS GARRUCHOS,02855017,7,75,00266 - SEMA-RS - SEMA-RS,00266 - SEMA-RS - SEMA-RS,GARIBALDI-RS,-28.19250,-55.63780,0.00,0,None,RHN,Ativo
129,BRIGADA MILITAR STO. ANTÔNIO MISSÕES,02855018,7,75,00266 - SEMA-RS - SEMA-RS,00266 - SEMA-RS - SEMA-RS,SANTO ANTÔNIO DAS MISSÕES-RS,-28.51280,-55.22860,0.00,0,None,RHN,Ativo
130,AEROPORTO TORRES,02949025,8,87,00266 - SEMA-RS - SEMA-RS,00266 - SEMA-RS - SEMA-RS,TORRES-RS,-29.41420,-49.80470,0.00,0,None,RHN,Ativo
131,PREFEITURA MORRINHOS DO SUL,02949027,8,84,00266 - SEMA-RS - SEMA-RS,00266 - SEMA-RS - SEMA-RS,MORRINHOS DO SUL-RS,-29.36860,-49.93310,0.00,0,None,RHN,Ativo
132,BARRAGEM DO RIO LEÃO,02949029,8,84,00266 - SEMA-RS - SEMA-RS,00266 - SEMA-RS - SEMA-RS,JACINTO MACHADO-SC,-29.09220,-49.88080,0.00,0,None,RHN,Ativo
133,CÂNION FORTALEZA CAMBARÁ DO SUL,02949030,8,84,00266 - SEMA-RS - SEMA-RS,00266 - SEMA-RS - SEMA-RS,CAMBARÁ DO SUL-RS,-29.08420,-49.99860,0.00,0,None,RHN,Ativo
134,MORRO DO FORNO MORRINHOS DO SUL,02949031,8,84,00266 - SEMA-RS - SEMA-RS,00266 - SEMA-RS - SEMA-RS,MORRINHOS DO SUL-RS,-29.31670,-49.98250,0.00,0,None,RHN,Ativo
135,CAPÃO DOS COXOS,02950045,8,87,00082 - CPRM - Cia de Pesquisa de Recursos Minerais,00001 - ANA - Agência Nacional de Águas ,SÃO FRANCISCO DE PAULA-RS,-29.40830,-50.58420,890.00,0,None,RHN,Ativo
136,BRIGADA MILITAR STO. ANTÔNIO DA PATRULHA,02950103,8,87,00266 - SEMA-RS - SEMA-RS,00266 - SEMA-RS - SEMA-RS,SANTO ANTÔNIO DA PATRULHA-RS,-29.82640,-50.51810,0.00,0,None,RHN,Ativo
137,AEROPORTO CAPÁO DA CANOA,02950104,8,87,00266 - SEMA-RS - SEMA-RS,00266 - SEMA-RS - SEMA-RS,CAPÃO DA CANOA-RS,-29.76610,-50.03830,0.00,0,None,RHN,Ativo
138,ETA CORSAN OSÓRIO,02950106,8,87,00266 - SEMA-RS - SEMA-RS,00266 - SEMA-RS - SEMA-RS,OSÓRIO-RS,-29.88890,-50.25810,0.00,0,None,RHN,Ativo
139,BOA ESPERANÇA ROLANTE,02950107,8,87,00266 - SEMA-RS - SEMA-RS,00266 - SEMA-RS - SEMA-RS,ROLANTE-RS,-29.55860,-50.50250,0.00,0,None,RHN,Ativo
140,FAZENDA TAIPAS - S.F. DE PAULA,02950108,8,87,00266 - SEMA-RS - SEMA-RS,00266 - SEMA-RS - SEMA-RS,SÃO FRANCISCO DE PAULA-RS,-29.46860,-50.45190,0.00,0,None,RHN,Ativo
141,PQ. APARADOS DA SERRA CAMBARÁ DO SUL,02950109,8,86,00266 - SEMA-RS - SEMA-RS,00266 - SEMA-RS - SEMA-RS,CAMBARÁ DO SUL-RS,-29.15860,-50.07890,0.00,0,None,RHN,Ativo
142,PROP. BARRA DO OURO,02950110,8,87,00266 - SEMA-RS - SEMA-RS,00266 - SEMA-RS - SEMA-RS,MAQUINÉ-RS,-29.56810,-50.28500,0.00,0,None,RHN,Ativo
143,RINCÃO DOS KROEFF S.F. DE PAULA,02950111,8,87,00266 - SEMA-RS - SEMA-RS,00266 - SEMA-RS - SEMA-RS,SÃO FRANCISCO DE PAULA-RS,-29.48640,-50.35360,0.00,0,None,RHN,Ativo
144,MORRO REUTER,02951142,8,87,00082 - CPRM - Cia de Pesquisa de Recursos Minerais,00001 - ANA - Agência Nacional de Águas ,MORRO REUTER-RS,-29.52890,-51.03690,492.00,0,None,RHN,Ativo
145,CLUBE BARROS CASSAL,02952060,8,85,00266 - SEMA-RS - SEMA-RS,00266 - SEMA-RS - SEMA-RS,BARROS CASSAL-RS,-29.09610,-52.58860,0.00,0,None,RHN,Ativo
146,IGREJA HERVEIRAS,02952061,8,85,00266 - SEMA-RS - SEMA-RS,00266 - SEMA-RS - SEMA-RS,HERVEIRAS-RS,-29.45360,-52.64860,0.00,0,None,RHN,Ativo
147,FAZ. SÃO JOSÉ LINHA CARVALHO,02952065,8,85,00266 - SEMA-RS - SEMA-RS,00266 - SEMA-RS - SEMA-RS,SINIMBU-RS,-29.38220,-52.71580,0.00,0,None,RHN,Ativo
148,LINHA ALMEIDA,02952066,8,85,00266 - SEMA-RS - SEMA-RS,00266 - SEMA-RS - SEMA-RS,SINIMBU-RS,-29.37000,-52.50720,0.00,0,None,RHN,Ativo
149,PROPRIEDADE NOVO CABRAIS,02953068,8,85,00266 - SEMA-RS - SEMA-RS,00266 - SEMA-RS - SEMA-RS,NOVO CABRAIS-RS,-29.75580,-53.05500,0.00,0,None,RHN,Ativo
150,SECR. AGRI. SÃO MARTINHO,02953071,7,76,00266 - SEMA-RS - SEMA-RS,00266 - SEMA-RS - SEMA-RS,SÃO MARTINHO DA SERRA-RS,-29.53670,-53.85390,0.00,0,None,RHN,Ativo
151,RINCÃO DO HERVAL CERRO BRANCO,02953073,8,85,00266 - SEMA-RS - SEMA-RS,00266 - SEMA-RS - SEMA-RS,CERRO BRANCO-RS,-29.62920,-53.02890,0.00,0,None,RHN,Ativo
152,LINHA POMERANOS AGUDO,02953074,8,85,00266 - SEMA-RS - SEMA-RS,00266 - SEMA-RS - SEMA-RS,AGUDO-RS,-29.58440,-53.14920,0.00,0,None,RHN,Ativo
153,COXILHA DO PAU FINADO SÃO GABRIEL,02954040,8,85,00266 - SEMA-RS - SEMA-RS,00266 - SEMA-RS - SEMA-RS,SÃO GABRIEL-RS,-29.95110,-54.33170,0.00,0,None,RHN,Ativo
154,SECR. AGR. M. AMB. DILERMANO GUIAR,02954041,7,76,00266 - SEMA-RS - SEMA-RS,00266 - SEMA-RS - SEMA-RS,DILERMANDO DE AGUIAR-RS,-29.70750,-54.20560,0.00,0,None,RHN,Ativo
155,FAZENDA SANTA TEREZA S.F. DE ASSIS,02954044,7,76,00266 - SEMA-RS - SEMA-RS,00266 - SEMA-RS - SEMA-RS,SÃO FRANCISCO DE ASSIS-RS,-29.32780,-54.94750,0.00,0,None,RHN,Ativo
156,AGRP. SANTO ANTÔNIO JARI,02954045,7,76,00266 - SEMA-RS - SEMA-RS,00266 - SEMA-RS - SEMA-RS,JARÍ-RS,-29.22580,-54.19250,0.00,0,None,RHN,Ativo
157,COOPERATIVA AGROSOLO UNISTALDA,02955022,7,75,00266 - SEMA-RS - SEMA-RS,00266 - SEMA-RS - SEMA-RS,UNISTALDA-RS,-29.04610,-55.15610,0.00,0,None,RHN,Ativo
158,ESCOLATÉCNICA ENCRUZILHADA MAÇAMBARÁ,02955023,7,76,00266 - SEMA-RS - SEMA-RS,00266 - SEMA-RS - SEMA-RS,MAÇAMBARA-RS,-29.00580,-55.50890,0.00,0,None,RHN,Ativo
159,FAZENDA CORDILHEIRA S.F. DE ASSIS,02955024,7,76,00266 - SEMA-RS - SEMA-RS,00266 - SEMA-RS - SEMA-RS,SÃO FRANCISCO DE ASSIS-RS,-29.42640,-55.15830,0.00,0,None,RHN,Ativo
160,CÂMARA DE VEREADORES MAÇAMBARÁ,02956011,7,75,00266 - SEMA-RS - SEMA-RS,00266 - SEMA-RS - SEMA-RS,MAÇAMBARA-RS,-29.14780,-56.06500,0.00,0,None,RHN,Ativo
161,SANCHURI (ESCOLA) URUGUAIANA,02956012,7,77,00266 - SEMA-RS - SEMA-RS,00266 - SEMA-RS - SEMA-RS,URUGUAIANA-RS,-29.54310,-56.81220,0.00,0,None,RHN,Ativo
162,AGROP. CERRO DO COQUEIRO URUGUAIANA,02956013,7,76,00266 - SEMA-RS - SEMA-RS,00266 - SEMA-RS - SEMA-RS,URUGUAIANA-RS,-29.77860,-56.52060,0.00,0,None,RHN,Ativo
163,FAZENDA SÃO LEONTINO ALEGRETE,02956016,7,76,00266 - SEMA-RS - SEMA-RS,00266 - SEMA-RS - SEMA-RS,ALEGRETE-RS,-29.75920,-56.14860,0.00,0,None,RHN,Ativo
164,ETA VIAMÃO,03050011,8,87,00266 - SEMA-RS - SEMA-RS,00266 - SEMA-RS - SEMA-RS,VIAMÃO-RS,-30.09580,-50.98250,0.00,0,None,RHN,Ativo
165,FAZENDA CAVALHADA PALMARES,03050014,8,87,00266 - SEMA-RS - SEMA-RS,00266 - SEMA-RS - SEMA-RS,MOSTARDAS-RS,-30.50110,-50.57750,0.00,0,None,RHN,Ativo
166,ESCOLA MARIO QUINTANA MOSTADAS,03050015,8,87,00266 - SEMA-RS - SEMA-RS,00266 - SEMA-RS - SEMA-RS,MOSTARDAS-RS,-30.69440,-50.56860,0.00,0,None,RHN,Ativo
167,ESTACIONAMENETO PREFEITURA SERTÃO SANTANA,03051071,8,87,00266 - SEMA-RS - SEMA-RS,00266 - SEMA-RS - SEMA-RS,SERTÃO SANTANA-RS,-30.46080,-51.60310,0.00,0,None,RHN,Ativo
168,PREFEITURA MARIANA PIMENTEL,03051072,8,87,00266 - SEMA-RS - SEMA-RS,00266 - SEMA-RS - SEMA-RS,MARIANA PIMENTEL-RS,-30.35420,-51.58440,0.00,0,None,RHN,Ativo
169,PROPRIEDADE BARÃO DO TRIUNFO,03051074,8,87,00266 - SEMA-RS - SEMA-RS,00266 - SEMA-RS - SEMA-RS,BARÃO DO TRIUNFO-RS,-30.50530,-51.90030,0.00,0,None,RHN,Ativo
170,COTRIBÁ PANTANO GRANDE,03052025,8,85,00266 - SEMA-RS - SEMA-RS,00266 - SEMA-RS - SEMA-RS,PANTANO GRANDE-RS,-30.20420,-52.37030,0.00,0,None,RHN,Ativo
171,CHECHE DOM FELICIANO,03052026,8,87,00266 - SEMA-RS - SEMA-RS,00266 - SEMA-RS - SEMA-RS,DOM FELICIANO-RS,-30.70170,-52.11220,0.00,0,None,RHN,Ativo
172,LAVRAS DO SUL,03053007,8,87,00007 - CEEE - CEEE,00007 - CEEE - CEEE,LAVRAS DO SUL-RS,-30.81750,-53.90140,300.00,0,None,RHN,Ativo
173,COTRISEL VILA NOVA DO SUL,03053032,8,85,00266 - SEMA-RS - SEMA-RS,00266 - SEMA-RS - SEMA-RS,VILA NOVA DO SUL-RS,-30.33530,-53.89250,0.00,0,None,RHN,Ativo
174,MARCO DAS ÁGUAS LAVRAS DO SUL,03054028,8,87,00266 - SEMA-RS - SEMA-RS,00266 - SEMA-RS - SEMA-RS,LAVRAS DO SUL-RS,-30.74780,-54.13750,0.00,0,None,RHN,Ativo
175,AZEVEDO SODRÉ SÃO GABRIEL,03054029,7,76,00266 - SEMA-RS - SEMA-RS,00266 - SEMA-RS - SEMA-RS,SÃO GABRIEL-RS,-30.09720,-54.64390,0.00,0,None,RHN,Ativo
176,FAZENDA SÃO GABRIEL,03054030,7,76,00266 - SEMA-RS - SEMA-RS,00266 - SEMA-RS - SEMA-RS,SÃO GABRIEL-RS,-30.48110,-54.55330,0.00,0,None,RHN,Ativo
177,TIARAJU SÃO GABRIEL,03054031,7,76,00266 - SEMA-RS - SEMA-RS,00266 - SEMA-RS - SEMA-RS,SÃO GABRIEL-RS,-30.24470,-54.36970,0.00,0,None,RHN,Ativo
178,USINA EÓLICA CERRO CHATO,03055016,7,76,00266 - SEMA-RS - SEMA-RS,00266 - SEMA-RS - SEMA-RS,SANTANA DO LIVRAMENTO-RS,-30.79190,-55.66170,0.00,0,None,RHN,Ativo
179,ESTÂNCIA SARANDI S. LIVRAMENTO,03055017,7,77,00266 - SEMA-RS - SEMA-RS,00266 - SEMA-RS - SEMA-RS,SANTANA DO LIVRAMENTO-RS,-30.66500,-55.95310,0.00,0,None,RHN,Ativo
180,CABECEIRA SAICÃ ROSÁRIO DO SUL,03055018,7,76,00266 - SEMA-RS - SEMA-RS,00266 - SEMA-RS - SEMA-RS,ROSÁRIO DO SUL-RS,-30.22690,-55.15530,0.00,0,None,RHN,Ativo
181,CERRO DO COMBATE S. LIVRAMENTO,03055019,7,76,00266 - SEMA-RS - SEMA-RS,00266 - SEMA-RS - SEMA-RS,SANTANA DO LIVRAMENTO-RS,-30.54690,-55.31970,0.00,0,None,RHN,Ativo
182,ESTÂNCIA SANTA HILMA S. LIVRAMENTO,03055021,7,77,00266 - SEMA-RS - SEMA-RS,00266 - SEMA-RS - SEMA-RS,SANTANA DO LIVRAMENTO-RS,-30.94530,-55.66640,0.00,0,None,RHN,Ativo
183,ESTÂNCIA CATY QUARAÍ,03056029,7,77,00266 - SEMA-RS - SEMA-RS,00266 - SEMA-RS - SEMA-RS,QUARAÍ-RS,-30.42470,-56.02060,0.00,0,None,RHN,Ativo
184,CTG ESTÂNCIA REAL DE BOJURU,03151074,8,87,00266 - SEMA-RS - SEMA-RS,00266 - SEMA-RS - SEMA-RS,SÃO JOSÉ DO NORTE-RS,-31.65500,-51.43750,0.00,0,None,RHN,Ativo
185,PQ. DE MÁQUINAS ARROIO DO PADRE,03152046,8,87,00266 - SEMA-RS - SEMA-RS,00266 - SEMA-RS - SEMA-RS,ARROIO DO PADRE-RS,-31.44580,-52.42060,0.00,0,None,RHN,Ativo
186,SECRETARIA AGRIC. MORRO REDONDO,03152047,8,88,00266 - SEMA-RS - SEMA-RS,00266 - SEMA-RS - SEMA-RS,MORRO REDONDO-RS,-31.60690,-52.62640,0.00,0,None,RHN,Ativo
187,ESTÂNCIA DA GRAÇA PELOTAS,03152051,8,87,00266 - SEMA-RS - SEMA-RS,00266 - SEMA-RS - SEMA-RS,PELOTAS-RS,-31.62580,-52.23000,0.00,0,None,RHN,Ativo
188,SÃO LOURENÇO DO SUL - COOPAR,03152052,8,87,00266 - SEMA-RS - SEMA-RS,00266 - SEMA-RS - SEMA-RS,SÃO LOURENÇO DO SUL-RS,-31.25970,-52.20360,0.00,0,None,RHN,Ativo
189,CPRM PEDRAS ALTAS,03153031,8,88,00266 - SEMA-RS - SEMA-RS,00266 - SEMA-RS - SEMA-RS,PEDRAS ALTAS-RS,-31.73360,-53.58860,0.00,0,None,RHN,Ativo
190,USINA TERMOELÉTRICA PIRATINI,03153035,8,87,00266 - SEMA-RS - SEMA-RS,00266 - SEMA-RS - SEMA-RS,PIRATINI-RS,-31.24190,-53.18080,0.00,0,None,RHN,Ativo
191,ADUANA ACEGUÁ,03154011,8,88,00266 - SEMA-RS - SEMA-RS,00266 - SEMA-RS - SEMA-RS,ACEGUÁ-RS,-31.86610,-54.16720,0.00,0,None,RHN,Ativo
192,AEROPORTO BAGÉ,03154012,7,79,00266 - SEMA-RS - SEMA-RS,00266 - SEMA-RS - SEMA-RS,BAGÉ-RS,-31.38890,-54.11310,0.00,0,None,RHN,Ativo
193,BENTO RENGO DOM PEDRITO,03154013,7,76,00266 - SEMA-RS - SEMA-RS,00266 - SEMA-RS - SEMA-RS,DOM PEDRITO-RS,-31.27000,-54.53110,0.00,0,None,RHN,Ativo
194,JOSÉ OTÍVIO BAGÉ,03154014,7,79,00266 - SEMA-RS - SEMA-RS,00266 - SEMA-RS - SEMA-RS,BAGÉ-RS,-31.17920,-54.15690,0.00,0,None,RHN,Ativo
195,PASSO SÃO LUIS BAGÉ,03154015,7,79,00266 - SEMA-RS - SEMA-RS,00266 - SEMA-RS - SEMA-RS,BAGÉ-RS,-31.51190,-54.51140,0.00,0,None,RHN,Ativo
196,TORQUATO SEVERO DOM PEDRITO,03154016,7,76,00266 - SEMA-RS - SEMA-RS,00266 - SEMA-RS - SEMA-RS,DOM PEDRITO-RS,-31.02220,-54.18470,0.00,0,None,RHN,Ativo
197,VILA SERRILHADA DOM PEDRITO,03154017,7,76,00266 - SEMA-RS - SEMA-RS,00266 - SEMA-RS - SEMA-RS,DOM PEDRITO-RS,-31.43780,-54.71220,0.00,0,None,RHN,Manutenção
198,MARCO ITAQUATIÁ S. LIVRAMENTO,03155004,7,76,00266 - SEMA-RS - SEMA-RS,00266 - SEMA-RS - SEMA-RS,SANTANA DO LIVRAMENTO-RS,-31.00500,-55.34080,0.00,0,None,RHN,Ativo
199,AGROPECUÁRIA POZZOBON S. LIVRAMENTO,03155005,7,76,00266 - SEMA-RS - SEMA-RS,00266 - SEMA-RS - SEMA-RS,SANTANA DO LIVRAMENTO-RS,-31.23970,-55.09440,0.00,0,None,RHN,Ativo
200,BARRAGEM DO CHASQUEIRO ARROIO GRANDE,03253029,8,88,00266 - SEMA-RS - SEMA-RS,00266 - SEMA-RS - SEMA-RS,ARROIO GRANDE-RS,-32.16190,-53.00780,0.00,0,None,RHN,Ativo
201,CORSAN HERVAL,03253030,8,88,00266 - SEMA-RS - SEMA-RS,00266 - SEMA-RS - SEMA-RS,HERVAL-RS,-32.02890,-53.39780,0.00,0,None,RHN,Ativo
202,PASSO DO CENTURIÃO HERVAL,03253031,8,88,00266 - SEMA-RS - SEMA-RS,00266 - SEMA-RS - SEMA-RS,HERVAL-RS,-32.11940,-53.73500,0.00,0,None,RHN,Ativo
203,AGRORIZA S. VITÓRIA PALMAR,03353020,8,88,00266 - SEMA-RS - SEMA-RS,00266 - SEMA-RS - SEMA-RS,SANTA VITÓRIA DO PALMAR-RS,-33.23810,-53.06190,0.00,0,None,RHN,Ativo
204,MISSÃO SURUCUCU,08263000,1,14,00082 - CPRM - Cia de Pesquisa de Recursos Minerais,00001 - ANA - Agência Nacional de Águas ,ALTO ALEGRE-RR,2.83580,-63.64170,0.00,0,None,RHN,Ativo
205,MALOCA DO ERICÓ,08362000,1,14,00082 - CPRM - Cia de Pesquisa de Recursos Minerais,00001 - ANA - Agência Nacional de Águas ,ALTO ALEGRE-RR,3.63190,-62.39890,0.00,0,None,RHN,Ativo
206,TAMISHIYACU,10075000,1,10,00906 - SENAMHI-PERU - SENAMHI-PERU,00906 - SENAMHI-PERU - SENAMHI-PERU,PERU-PU,-4.00360,-73.16110,105.00,10001000,RIO SOLIMÕES/AMAZONAS,RHN,Ativo
207,MAZAN,10086700,1,10,00906 - SENAMHI-PERU - SENAMHI-PERU,00906 - SENAMHI-PERU - SENAMHI-PERU,PERU-PU,-3.48810,-73.08190,0.00,10000090,RIO NAPO,RHN,Ativo
208,TABATINGA,10100000,1,10,00082 - CPRM - Cia de Pesquisa de Recursos Minerais,00001 - ANA - Agência Nacional de Águas ,TABATINGA-AM,-4.23470,-69.94470,78.00,10001000,RIO SOLIMÕES/AMAZONAS,CotaOnline,Ativo
209,TABATINGA,10100000,1,10,00082 - CPRM - Cia de Pesquisa de Recursos Minerais,00001 - ANA - Agência Nacional de Águas ,TABATINGA-AM,-4.23470,-69.94470,78.00,10001000,RIO SOLIMÕES/AMAZONAS,RHN,Ativo
210,PALMEIRAS DO JAVARI,10200000,1,10,"00100 - COHIDRO - Consultoria, Estudos e Projetos",00001 - ANA - Agência Nacional de Águas ,ATALAIA DO NORTE-AM,-5.13890,-72.81360,142.00,10900000,RIO JAVARI,RHN,Ativo
211,ESTIRÃO DO REPOUSO,10500000,1,10,"00100 - COHIDRO - Consultoria, Estudos e Projetos",00001 - ANA - Agência Nacional de Águas ,ATALAIA DO NORTE-AM,-4.34080,-70.90560,89.00,10900000,RIO JAVARI,RHN,Ativo
212,LADÁRIO - JUSANTE,10910000,1,10,"00100 - COHIDRO - Consultoria, Estudos e Projetos",00001 - ANA - Agência Nacional de Águas ,ATALAIA DO NORTE-AM,-4.58360,-70.26440,91.00,10940000,RIO ITACUAI,RHN,Ativo
213,SÃO PAULO DE OLIVENÇA,11400000,1,11,"00100 - COHIDRO - Consultoria, Estudos e Projetos",00001 - ANA - Agência Nacional de Águas ,SÃO PAULO DE OLIVENÇA-AM,-3.45690,-68.91190,71.00,10001000,RIO SOLIMÕES/AMAZONAS,RHN,Ativo
214,SANTO ANTÔNIO DO IÇÁ,11500000,1,11,"00100 - COHIDRO - Consultoria, Estudos e Projetos",00001 - ANA - Agência Nacional de Águas ,SANTO ANTÔNIO DO IÇÁ-AM,-3.10170,-67.93560,53.00,10001000,RIO SOLIMÕES/AMAZONAS,RHN,Ativo
215,COLOCAÇÃO CAXIAS NOVO,12100000,1,12,"00100 - COHIDRO - Consultoria, Estudos e Projetos",00001 - ANA - Agência Nacional de Águas ,JUTAÍ-AM,-4.65140,-68.32440,0.00,12103000,RIO JUTAÍ,RHN,Ativo
216,NOVO CUJUBIM,12160000,1,12,"00100 - COHIDRO - Consultoria, Estudos e Projetos",00001 - ANA - Agência Nacional de Águas ,JUTAÍ-AM,-4.65140,-68.32440,0.00,12103000,RIO JUTAÍ,RHN,Ativo
217,PORTO SEGURO,12240000,1,12,"00100 - COHIDRO - Consultoria, Estudos e Projetos",00001 - ANA - Agência Nacional de Águas ,JUTAÍ-AM,-3.33720,-67.49170,0.00,12103000,RIO JUTAÍ,RHN,Ativo
218,FONTE BOA,12351000,1,12,"00100 - COHIDRO - Consultoria, Estudos e Projetos",00001 - ANA - Agência Nacional de Águas ,FONTE BOA-AM,-2.49140,-66.06170,0.00,10001000,RIO SOLIMÕES/AMAZONAS,RHN,Ativo
219,THAUMATURGO,12370000,1,12,00426 - CONSTRUFAM - CONSTRUFAM,00001 - ANA - Agência Nacional de Águas ,MARECHAL THAUMATURGO-AC,-8.94580,-72.78470,0.00,12200000,RIO JURUÁ,RHN,Ativo
220,PORTO WALTER,12390000,1,12,00426 - CONSTRUFAM - CONSTRUFAM,00001 - ANA - Agência Nacional de Águas ,PORTO WALTER-AC,-8.26720,-72.74110,0.00,12200000,RIO JURUÁ,RHN,Ativo
221,CRUZEIRO DO SUL,12500000,1,12,00426 - CONSTRUFAM - CONSTRUFAM,00001 - ANA - Agência Nacional de Águas ,CRUZEIRO DO SUL-AC,-7.63330,-72.66030,0.00,12200000,RIO JURUÁ,RHN,Ativo
222,PONTE DO RIO LIBERDADE,12510500,1,12,00426 - CONSTRUFAM - CONSTRUFAM,00001 - ANA - Agência Nacional de Águas ,TARAUACÁ-AC,-7.79940,-72.02110,189.00,12253000,RIO LIBERDADE,RHN,Ativo
223,IPIXUNA,12520000,1,12,00426 - CONSTRUFAM - CONSTRUFAM,00001 - ANA - Agência Nacional de Águas ,IPIXUNA-AM,-7.05560,-71.68920,0.00,12200000,RIO JURUÁ,RHN,Ativo
224,SERINGAL SANTO AMARO,12540000,1,12,00426 - CONSTRUFAM - CONSTRUFAM,00001 - ANA - Agência Nacional de Águas ,EIRUNEPÉ-AM,-7.26670,-70.98330,0.00,12266000,RIO GREGÓRIO,RHN,Ativo
225,EIRUNEPÉ - MONTANTE,12550000,1,12,00426 - CONSTRUFAM - CONSTRUFAM,00001 - ANA - Agência Nacional de Águas ,EIRUNEPÉ-AM,-6.68440,-69.88110,0.00,12200000,RIO JURUÁ,RHN,Ativo
226,JORDÃO,12557000,1,12,00380 - SEMA-AC - Secretaria de Meio Ambiente do Estado do Acre,00380 - SEMA-AC - Secretaria de Meio Ambiente do Estado do Acre,JORDÃO-AC,-9.18830,-71.95250,239.00,12280000,RIO TARAUACÁ,RHN,Ativo
227,PONTE DE TARAUACÁ,12590000,1,12,00426 - CONSTRUFAM - CONSTRUFAM,00001 - ANA - Agência Nacional de Águas ,TARAUACÁ-AC,-8.15190,-70.74560,0.00,12280000,RIO TARAUACÁ,RHN,Ativo
228,SERINGAL SANTA HELENA,12640000,1,12,00426 - CONSTRUFAM - CONSTRUFAM,00001 - ANA - Agência Nacional de Águas ,FEIJÓ-AC,-8.68580,-70.55110,0.00,12286000,RIO ENVIRA,RHN,Ativo
229,FEIJÓ,12650000,1,12,00426 - CONSTRUFAM - CONSTRUFAM,00001 - ANA - Agência Nacional de Águas ,FEIJÓ-AC,-8.16360,-70.35640,0.00,12286000,RIO ENVIRA,RHN,Ativo
230,ENVIRA,12680000,1,12,00426 - CONSTRUFAM - CONSTRUFAM,00001 - ANA - Agência Nacional de Águas ,ENVIRA-AM,-7.42810,-70.02250,0.00,12280000,RIO TARAUACÁ,RHN,Ativo
231,SANTOS DUMONT,12700000,1,12,"00100 - COHIDRO - Consultoria, Estudos e Projetos",00001 - ANA - Agência Nacional de Águas ,ITAMARATI-AM,-6.44030,-68.24610,0.00,12200000,RIO JURUÁ,RHN,Ativo
232,GAVIÃO,12840000,1,12,"00100 - COHIDRO - Consultoria, Estudos e Projetos",00001 - ANA - Agência Nacional de Águas ,CARAUARI-AM,-4.83920,-66.85060,0.00,12200000,RIO JURUÁ,RHN,Ativo
233,FORTE DAS GRAÇAS,12842000,1,12,"00100 - COHIDRO - Consultoria, Estudos e Projetos",00001 - ANA - Agência Nacional de Águas ,JURUÁ-AM,-3.64140,-66.10310,0.00,12200000,RIO JURUÁ,RHN,Ativo
234,VILLARREAL,12844500,1,12,00907 - IDEAM-COLÔMBIA - IDEAM-COLÔMBIA,00907 - IDEAM-COLÔMBIA - IDEAM-COLÔMBIA,LA PEDRERA-CO,-1.30940,-69.61920,0.00,12300000,RIO CAQUETÁ/JAPURÁ,RHN,Ativo
235,VILA BITTENCOURT,12845000,1,12,"00100 - COHIDRO - Consultoria, Estudos e Projetos",00001 - ANA - Agência Nacional de Águas ,JAPURÁ-AM,-1.39470,-69.42830,0.00,12300000,RIO CAQUETÁ/JAPURÁ,RHN,Ativo
236,ACANAUI,12850000,1,12,"00100 - COHIDRO - Consultoria, Estudos e Projetos",00001 - ANA - Agência Nacional de Águas ,JAPURÁ-AM,-1.82110,-66.60920,0.00,12300000,RIO CAQUETÁ/JAPURÁ,RHN,Ativo
237,ESTIRÃO DA SANTA CRUZ,12880000,1,12,"00100 - COHIDRO - Consultoria, Estudos e Projetos",00001 - ANA - Agência Nacional de Águas ,TEFÉ-AM,-4.29220,-65.20170,0.00,12403000,RIO TEFÉ,RHN,Ativo
238,TEFÉ - MISSÕES,12900001,1,12,"00100 - COHIDRO - Consultoria, Estudos e Projetos",00001 - ANA - Agência Nacional de Águas ,TEFÉ-AM,-3.37580,-64.65470,0.00,10001000,RIO SOLIMÕES/AMAZONAS,RHN,Ativo
239,SERINGAL MOREIRA,13100000,1,13,"00100 - COHIDRO - Consultoria, Estudos e Projetos",00001 - ANA - Agência Nacional de Águas ,COARI-AM,-5.10920,-63.98470,0.00,13100000,RIO COARI,RHN,Ativo
240,COARI,13150003,1,13,00082 - CPRM - Cia de Pesquisa de Recursos Minerais,00001 - ANA - Agência Nacional de Águas ,COARI-AM,-4.08560,-63.08330,0.00,10001000,RIO SOLIMÕES/AMAZONAS,RHN,Ativo
241,SANTA ROSA DO PURUS - SEDE,13169900,1,13,00380 - SEMA-AC - Secretaria de Meio Ambiente do Estado do Acre,00380 - SEMA-AC - Secretaria de Meio Ambiente do Estado do Acre,SANTA ROSA DO PURUS-AC,-9.43420,-70.49420,0.00,13300000,RIO PURUS,RHN,Ativo
242,MANOEL URBANO,13180000,1,13,00082 - CPRM - Cia de Pesquisa de Recursos Minerais,00001 - ANA - Agência Nacional de Águas ,MANOEL URBANO-AC,-8.88860,-69.27500,0.00,13300000,RIO PURUS,RHN,Ativo
243,SENA MADUREIRA,13310000,1,13,00082 - CPRM - Cia de Pesquisa de Recursos Minerais,00001 - ANA - Agência Nacional de Águas ,SENA MADUREIRA-AC,-9.06780,-68.65310,0.00,13329000,RIO IACO,RHN,Ativo
244,SERINGAL GUARANY,13405000,1,13,00426 - CONSTRUFAM - CONSTRUFAM,00001 - ANA - Agência Nacional de Águas ,SENA MADUREIRA-AC,-9.11030,-68.99330,0.00,13329800,RIO CAETÉ,RHN,Ativo
245,SERINGAL DA CARIDADE,13410000,1,13,00082 - CPRM - Cia de Pesquisa de Recursos Minerais,00001 - ANA - Agência Nacional de Águas ,BOCA DO ACRE-AM,-9.04390,-68.57720,0.00,13300000,RIO PURUS,RHN,Ativo
246,ALDEIA DOS PATOS,13439000,1,13,00082 - CPRM - Cia de Pesquisa de Recursos Minerais,00001 - ANA - Agência Nacional de Águas ,ASSIS BRASIL-AC,-10.92610,-69.92330,256.00,13330000,RIO ACRE,RHN,Ativo
247,ASSIS BRASIL,13450000,1,13,00082 - CPRM - Cia de Pesquisa de Recursos Minerais,00001 - ANA - Agência Nacional de Águas ,ASSIS BRASIL-AC,-10.94360,-69.56560,0.00,13330000,RIO ACRE,RHN,Ativo
248,BRASILÉIA,13470000,1,13,00082 - CPRM - Cia de Pesquisa de Recursos Minerais,00001 - ANA - Agência Nacional de Águas ,BRASILÉIA-AC,-11.01780,-68.74500,0.00,13330000,RIO ACRE,RHN,Ativo
249,COLÔNIA DOLORES (XAPURI),13540000,1,13,00082 - CPRM - Cia de Pesquisa de Recursos Minerais,00001 - ANA - Agência Nacional de Águas ,XAPURI-AC,-10.56060,-68.70470,0.00,13333200,RIO XAPURI,RHN,Ativo
250,XAPURI,13550000,1,13,00082 - CPRM - Cia de Pesquisa de Recursos Minerais,00001 - ANA - Agência Nacional de Águas ,XAPURI-AC,-10.65110,-68.50750,0.00,13330000,RIO ACRE,RHN,Ativo
251,CAPIXABA (Colocação São José),13568000,1,13,00082 - CPRM - Cia de Pesquisa de Recursos Minerais,00001 - ANA - Agência Nacional de Águas ,CAPIXABA-AC,-10.38860,-67.93530,0.00,13330000,RIO ACRE,RHN,Ativo
252,ESPALHA (Seringal Belo Horizonte),13572000,1,13,00082 - CPRM - Cia de Pesquisa de Recursos Minerais,00001 - ANA - Agência Nacional de Águas ,RIO BRANCO-AC,-10.00500,-68.52940,0.00,13334000,RIOZINHO DA ROLA ou RIO BRANCO,RHN,Ativo
253,RIO ROLA (Ramal do Barro Alto),13578000,1,13,00082 - CPRM - Cia de Pesquisa de Recursos Minerais,00001 - ANA - Agência Nacional de Águas ,RIO BRANCO-AC,-10.05670,-67.96390,0.00,13334000,RIOZINHO DA ROLA ou RIO BRANCO,RHN,Ativo
254,RIO BRANCO,13600002,1,13,00082 - CPRM - Cia de Pesquisa de Recursos Minerais,00001 - ANA - Agência Nacional de Águas ,RIO BRANCO-AC,-9.97500,-67.80080,0.00,13330000,RIO ACRE,RHN,Ativo
255,PORTO ACRE,13610001,1,13,00380 - SEMA-AC - Secretaria de Meio Ambiente do Estado do Acre,00380 - SEMA-AC - Secretaria de Meio Ambiente do Estado do Acre,PORTO ACRE-AC,-9.58190,-67.52810,134.00,13330000,RIO ACRE,RHN,Ativo
256,FLORIANO PEIXOTO,13650000,1,13,00426 - CONSTRUFAM - CONSTRUFAM,00001 - ANA - Agência Nacional de Águas ,BOCA DO ACRE-AM,-9.06670,-67.39690,0.00,13330000,RIO ACRE,RHN,Ativo
257,VALPARAÍSO - MONTANTE,13710001,1,13,00426 - CONSTRUFAM - CONSTRUFAM,00001 - ANA - Agência Nacional de Águas ,BOCA DO ACRE-AM,-8.65330,-67.37500,0.00,13300000,RIO PURUS,RHN,Ativo
258,LÁBREA,13870000,1,13,00426 - CONSTRUFAM - CONSTRUFAM,00001 - ANA - Agência Nacional de Águas ,LÁBREA-AM,-7.25810,-64.79750,60.00,13300000,RIO PURUS,RHN,Ativo
259,CRISTO,13885000,1,13,00426 - CONSTRUFAM - CONSTRUFAM,00001 - ANA - Agência Nacional de Águas ,LÁBREA-AM,-7.46440,-64.24330,0.00,13360200,RIO MUCUIM,RHN,Ativo
260,ARUMÃ - JUSANTE,13962000,1,13,00082 - CPRM - Cia de Pesquisa de Recursos Minerais,00001 - ANA - Agência Nacional de Águas ,BERURI-AM,-4.72860,-62.14530,0.00,13300000,RIO PURUS,RHN,Ativo
261,BERURI,13990000,1,13,00082 - CPRM - Cia de Pesquisa de Recursos Minerais,00001 - ANA - Agência Nacional de Águas ,BERURI-AM,-3.89890,-61.37420,0.00,13300000,RIO PURUS,RHN,Ativo
262,MITU AUTOMATICA,14000900,1,14,00907 - IDEAM-COLÔMBIA - IDEAM-COLÔMBIA,00907 - IDEAM-COLÔMBIA - IDEAM-COLÔMBIA,MITU-CO,1.25940,-70.23890,0.00,14230000,RIO VAUPÉS/UAUPÉS,RHN,Ativo
263,MANACAPURU,14100000,1,14,00082 - CPRM - Cia de Pesquisa de Recursos Minerais,00001 - ANA - Agência Nacional de Águas ,MANACAPURU-AM,-3.31060,-60.60940,0.00,10001000,RIO SOLIMÕES/AMAZONAS,CotaOnline,Ativo
264,MANACAPURU,14100000,1,14,00082 - CPRM - Cia de Pesquisa de Recursos Minerais,00001 - ANA - Agência Nacional de Águas ,MANACAPURU-AM,-3.31060,-60.60940,0.00,10001000,RIO SOLIMÕES/AMAZONAS,RHN,Ativo
265,CUCUÍ,14110000,1,14,00082 - CPRM - Cia de Pesquisa de Recursos Minerais,00001 - ANA - Agência Nacional de Águas ,SÃO GABRIEL DA CACHOEIRA-AM,1.21530,-66.85250,0.00,14200000,RIO NEGRO,RHN,Ativo
266,FAZENDA RECREIO,14235200,1,14,00389 - FEMARH-RR - Fundação Estadual do Meio Ambiente e Recursos...,00389 - FEMARH-RR - Fundação Estadual do Meio Ambiente e Recursos...,BOA VISTA-RR,-2.86420,-60.75170,0.00,14265100,RIO CAUAME,RHN,Ativo
267,FAZENDA RECREIO,14265100,1,14,00389 - FEMARH-RR - Fundação Estadual do Meio Ambiente e Recursos...,00389 - FEMARH-RR - Fundação Estadual do Meio Ambiente e Recursos...,BOA VISTA-RR,-2.86420,-60.75170,0.00,14235200,IGARAPÉ TARIRA,RHN,Ativo
268,FAZENDA RECREIO,14265200,1,14,00389 - FEMARH-RR - Fundação Estadual do Meio Ambiente e Recursos...,00389 - FEMARH-RR - Fundação Estadual do Meio Ambiente e Recursos...,BOA VISTA-RR,-2.86420,-60.75170,0.00,14265100,RIO CAUAME,RHN,Ativo
269,CURICURIARI,14330000,1,14,00082 - CPRM - Cia de Pesquisa de Recursos Minerais,00001 - ANA - Agência Nacional de Águas ,SÃO GABRIEL DA CACHOEIRA-AM,-0.20060,-66.80220,0.00,14200000,RIO NEGRO,RHN,Ativo
270,BARCELOS,14480002,1,14,00082 - CPRM - Cia de Pesquisa de Recursos Minerais,00001 - ANA - Agência Nacional de Águas ,BARCELOS-AM,-0.96580,-62.93110,0.00,14200000,RIO NEGRO,RHN,Ativo
271,BARCELOS,14480002,1,14,00082 - CPRM - Cia de Pesquisa de Recursos Minerais,00001 - ANA - Agência Nacional de Águas ,BARCELOS-AM,-0.96580,-62.93110,0.00,14200000,RIO NEGRO,CotaOnline,Ativo
272,UAICÁS,14488000,1,14,00082 - CPRM - Cia de Pesquisa de Recursos Minerais,00001 - ANA - Agência Nacional de Águas ,ALTO ALEGRE-RR,3.54970,-63.16920,0.00,14261000,RIO URARICOERA,RHN,Ativo
273,MARACÁ,14489000,1,14,00082 - CPRM - Cia de Pesquisa de Recursos Minerais,00001 - ANA - Agência Nacional de Águas ,ALTO ALEGRE-RR,3.35280,-61.42220,0.00,14261000,RIO URARICOERA,RHN,Ativo
274,FAZENDA CAJUPIRANGA,14495000,1,14,00082 - CPRM - Cia de Pesquisa de Recursos Minerais,00001 - ANA - Agência Nacional de Águas ,ALTO ALEGRE-RR,3.43810,-61.03670,0.00,14261000,RIO URARICOERA,RHN,Ativo
275,MOCIDADE,14500000,1,14,00082 - CPRM - Cia de Pesquisa de Recursos Minerais,00001 - ANA - Agência Nacional de Águas ,BOA VISTA-RR,3.46440,-60.90970,0.00,14261000,RIO URARICOERA,RHN,Ativo
276,FAZENDA PASSARÃO,14515000,1,14,00082 - CPRM - Cia de Pesquisa de Recursos Minerais,00001 - ANA - Agência Nacional de Águas ,BOA VISTA-RR,3.20780,-60.57110,0.00,14261000,RIO URARICOERA,RHN,Ativo
277,RIO MAÚ,14526400,1,14,00082 - CPRM - Cia de Pesquisa de Recursos Minerais,00001 - ANA - Agência Nacional de Águas ,UIRAMUTA-RR,4.57610,-60.13970,0.00,14263490,RIO MAÚ OU IRENG,RHN,Ativo
278,PONTE DO TACUTU,14527000,1,14,00082 - CPRM - Cia de Pesquisa de Recursos Minerais,00001 - ANA - Agência Nacional de Águas ,NORMÂNDIA-RR,3.56750,-59.88830,0.00,14263200,RIO TACUTU,RHN,Ativo
279,VILA SURUMU,14530000,1,14,00082 - CPRM - Cia de Pesquisa de Recursos Minerais,00001 - ANA - Agência Nacional de Águas ,PACARAIMA-RR,4.19610,-60.79390,0.00,14264000,RIO SURUMU,RHN,Ativo
280,VILA SURUMU,14530000,1,14,00082 - CPRM - Cia de Pesquisa de Recursos Minerais,00001 - ANA - Agência Nacional de Águas ,PACARAIMA-RR,4.19610,-60.79390,0.00,14264000,RIO SURUMU,GDH,Ativo
281,FAZENDA BANDEIRA BRANCA,14540000,1,14,00082 - CPRM - Cia de Pesquisa de Recursos Minerais,00001 - ANA - Agência Nacional de Águas ,UIRAMUTA-RR,4.63060,-60.47060,0.00,14264200,RIO COTINGO,RHN,Ativo
282,FAZENDA PARAÍSO,14558000,1,14,00082 - CPRM - Cia de Pesquisa de Recursos Minerais,00001 - ANA - Agência Nacional de Águas ,BONFIM-RR,3.31780,-60.34470,0.00,14263200,RIO TACUTU,RHN,Ativo
283,BOA VISTA,14620000,1,14,00082 - CPRM - Cia de Pesquisa de Recursos Minerais,00001 - ANA - Agência Nacional de Águas ,BOA VISTA-RR,2.82670,-60.65610,0.00,14260000,RIO BRANCO,RHN,Ativo
284,FÉ E ESPERANÇA,14680001,1,14,00082 - CPRM - Cia de Pesquisa de Recursos Minerais,00001 - ANA - Agência Nacional de Águas ,MUCAJAÍ-RR,2.87080,-61.44060,0.00,14265400,RIO MUCAJAÍ,RHN,Ativo
285,MUCAJAÍ,14690000,1,14,00082 - CPRM - Cia de Pesquisa de Recursos Minerais,00001 - ANA - Agência Nacional de Águas ,MUCAJAÍ-RR,2.47140,-60.91780,0.00,14265400,RIO MUCAJAÍ,RHN,Ativo
286,CARACARAÍ,14710000,1,14,00082 - CPRM - Cia de Pesquisa de Recursos Minerais,00001 - ANA - Agência Nacional de Águas ,CARACARAÍ-RR,1.82140,-61.12360,0.00,14260000,RIO BRANCO,RHN,Ativo
287,FAZENDA ANAUÁ,14740000,1,14,00082 - CPRM - Cia de Pesquisa de Recursos Minerais,00001 - ANA - Agência Nacional de Águas ,CARACARAÍ-RR,1.12920,-60.22360,0.00,14266000,RIO ANAUA,RHN,Ativo
288,SANTA MARIA DO BOIAÇU,14790000,1,14,00082 - CPRM - Cia de Pesquisa de Recursos Minerais,00001 - ANA - Agência Nacional de Águas ,RORAINÓPOLIS-RR,-0.50530,-61.78640,0.00,14260000,RIO BRANCO,RHN,Ativo
289,MOURA,14840000,1,14,00082 - CPRM - Cia de Pesquisa de Recursos Minerais,00001 - ANA - Agência Nacional de Águas ,BARCELOS-AM,-1.45670,-61.63470,0.00,14200000,RIO NEGRO,RHN,Ativo
290,BASE ALALAÚ,14850000,1,14,00082 - CPRM - Cia de Pesquisa de Recursos Minerais,00001 - ANA - Agência Nacional de Águas ,RORAINÓPOLIS-RR,-0.85860,-60.52000,59.00,14271200,RIO ALALAÚ,RHN,Ativo
291,MANAUS,14990000,1,14,00082 - CPRM - Cia de Pesquisa de Recursos Minerais,00001 - ANA - Agência Nacional de Águas ,MANAUS-AM,-3.13830,-60.02720,0.00,14200000,RIO NEGRO,RHN,Ativo
292,MANAUS,14990000,1,14,00082 - CPRM - Cia de Pesquisa de Recursos Minerais,00001 - ANA - Agência Nacional de Águas ,MANAUS-AM,-3.13830,-60.02720,0.00,14200000,RIO NEGRO,CotaOnline,Ativo
293,UHE GUAPORÉ MONTANTE 2,15042900,1,15,00803 - CONS.GUAPORÉ - CONS.GUAPORÉ,00803 - CONS.GUAPORÉ - CONS.GUAPORÉ,PONTES E LACERDA-MT,-14.82970,-58.91000,540.00,15210000,RIO GUAPORÉ,Setor Elétrico,Ativo
294,UHE GUAPORÉ MONTANTE 1,15043000,1,15,00803 - CONS.GUAPORÉ - CONS.GUAPORÉ,00803 - CONS.GUAPORÉ - CONS.GUAPORÉ,JAURU-MT,-15.05940,-58.91060,485.00,15210000,RIO GUAPORÉ,Setor Elétrico,Ativo
295,UHE GUAPORÉ BARRAMENTO,15044000,1,15,00803 - CONS.GUAPORÉ - CONS.GUAPORÉ,00803 - CONS.GUAPORÉ - CONS.GUAPORÉ,PONTES E LACERDA-MT,-15.12360,-58.96220,305.00,15210000,RIO GUAPORÉ,Setor Elétrico,Ativo
296,UHE GUAPORÉ JUSANTE,15044100,1,15,00803 - CONS.GUAPORÉ - CONS.GUAPORÉ,00803 - CONS.GUAPORÉ - CONS.GUAPORÉ,PONTES E LACERDA-MT,-15.13810,-58.98250,306.00,15210000,RIO GUAPORÉ,Setor Elétrico,Ativo
297,PONTES E LACERDA,15050001,1,15,00091 - SEMA-MT - SEMA-MT,00091 - SEMA-MT - SEMA-MT,PONTES E LACERDA-MT,-15.21530,-59.35390,0.00,15210000,RIO GUAPORÉ,RHN,Ativo
298,PCH SALTO CORGÃO BARRAMENTO,15120500,1,15,00315 - GACEL - GACEL,00315 - GACEL - GACEL,NOVA LACERDA-MT,-14.44780,-59.48470,550.00,15213900,RIO CORGÃO,Setor Elétrico,Ativo
299,PCH SALTO CORGÃO JUSANTE,15121000,1,15,00315 - GACEL - GACEL,00315 - GACEL - GACEL,NOVA LACERDA-MT,-14.45750,-59.50860,0.00,15213900,RIO CORGÃO,Setor Elétrico,Ativo
300,PCH RIO PRATA JUSANTE,15122000,1,15,00703 - HIDREL COMODORO - HIDREL COMODORO,00703 - HIDREL COMODORO - HIDREL COMODORO,COMODORO-MT,-13.63000,-59.87610,463.00,15215900,RIO PRATA,Setor Elétrico,Ativo
301,PCH ESPERANÇA JUSANTE,15123000,1,15,00551 - ÁGUASCLARAS - ÁGUASCLARAS,00551 - ÁGUASCLARAS - ÁGUASCLARAS,COMODORO-MT,-13.78220,-59.79220,469.00,15216020,RIO PIOLHINHO,Setor Elétrico,Ativo
302,PCH CABIXI II BARRAMENTO,15123080,1,15,00686 - CASSOL - CASSOL,00686 - CASSOL - CASSOL,COMODORO-MT,-13.02060,-60.11140,508.00,15215500,RIO LAMBARI,Setor Elétrico,Ativo
303,PCH CABIXI II JUSANTE,15123100,1,15,00686 - CASSOL - CASSOL,00686 - CASSOL - CASSOL,COMODORO-MT,-13.02030,-60.13500,355.00,15215500,RIO LAMBARI,Setor Elétrico,Ativo
304,PCH CABIXI BARRAMENTO,15123200,1,15,00686 - CASSOL - CASSOL,00686 - CASSOL - CASSOL,VILHENA-RO,-12.95750,-60.13470,491.00,15216000,RIO CABIXI ou BRANCO,Setor Elétrico,Ativo
305,PCH CABIXI JUSANTE,15123500,1,15,00686 - CASSOL - CASSOL,00686 - CASSOL - CASSOL,VILHENA-RO,-12.96330,-60.14920,351.00,15216000,RIO CABIXI ou BRANCO,Setor Elétrico,Ativo
306,CABIXI,15124009,1,15,00082 - CPRM - Cia de Pesquisa de Recursos Minerais,00001 - ANA - Agência Nacional de Águas ,CABIXI-RO,-13.51250,-60.53000,0.00,15216000,RIO CABIXI ou BRANCO,RHN,Ativo
307,CGH CASTAMAN I BARRAMENTO,15128500,1,15,00687 - RIO ENGANADO - Hidrelétrica Rio Enganado Ltda.,00687 - RIO ENGANADO - Hidrelétrica Rio Enganado Ltda.,COLORADO DO OESTE-RO,-13.07940,-60.62190,427.00,15216030,RIO ENGANADO,Setor Elétrico,Ativo
308,CGH CASTAMAN I JUSANTE,15128800,1,15,00687 - RIO ENGANADO - Hidrelétrica Rio Enganado Ltda.,00687 - RIO ENGANADO - Hidrelétrica Rio Enganado Ltda.,COLORADO DO OESTE-RO,-13.09000,-60.62190,349.00,15216030,RIO ENGANADO,Setor Elétrico,Ativo
309,CGH CASTAMAN III BARRAMENTO,15128950,1,15,00159 - CASTAMAN - CASTAMAN,00159 - CASTAMAN - CASTAMAN,COLORADO DO OESTE-RO,-13.13720,-60.64000,302.00,15216030,RIO ENGANADO,Setor Elétrico,Ativo
310,CGH CASTAMAN III JUSANTE,15129000,1,15,00159 - CASTAMAN - CASTAMAN,00159 - CASTAMAN - CASTAMAN,COLORADO DO OESTE-RO,-13.15220,-60.65690,268.00,15216030,RIO ENGANADO,Setor Elétrico,Ativo
311,PIMENTEIRAS,15130000,1,15,00082 - CPRM - Cia de Pesquisa de Recursos Minerais,00001 - ANA - Agência Nacional de Águas ,PIMENTEIRAS DO OESTE-RO,-13.48580,-61.05000,0.00,15210000,RIO GUAPORÉ,RHN,Ativo
312,"PCH SANTA LUZIA D""OESTE RIO BRANCO",15138000,1,15,00559 - BERGAMIN - BERGAMIN,00559 - BERGAMIN - BERGAMIN,ALTO ALEGRE DOS PARECIS-RO,-12.38420,-61.71060,406.00,15216300,RIO BRANCO,Setor Elétrico,Ativo
313,"PCH SANTA LUZIA D""OESTE MONTANTE",15143000,1,15,00559 - BERGAMIN - BERGAMIN,00559 - BERGAMIN - BERGAMIN,ALTO ALEGRE DOS PARECIS-RO,-12.38000,-61.74970,367.00,15216250,RIO COLORADO,Setor Elétrico,Ativo
314,"PCH SANTA LUZIA D""OESTE JUSANTE",15145000,1,15,00559 - BERGAMIN - BERGAMIN,00559 - BERGAMIN - BERGAMIN,ALTO ALEGRE DOS PARECIS-RO,-12.34560,-61.76970,212.00,15216250,RIO COLORADO,Setor Elétrico,Ativo
315,PEDRAS NEGRAS,15150000,1,15,00082 - CPRM - Cia de Pesquisa de Recursos Minerais,00001 - ANA - Agência Nacional de Águas ,COSTA MARQUES-RO,-12.85140,-62.89920,152.00,15210000,RIO GUAPORÉ,RHN,Ativo
316,CGH ALTOÉ II BARRAMENTO,15150300,1,15,00225 - ALTO E - ALTOÉ,00225 - ALTO E - ALTOÉ,CEREJEIRAS-RO,-12.55080,-61.53000,403.00,15240598,RIO SÃO JOÃO,Setor Elétrico,Ativo
317,CGH ALTOÉ II JUSANTE,15150500,1,15,00225 - ALTO E - ALTOÉ,00225 - ALTO E - ALTOÉ,PARECIS-RO,-12.58140,-61.52420,210.00,15240598,RIO SÃO JOÃO,Setor Elétrico,Ativo
318,PCH ALTA FLORESTA MONTANTE 2,15150800,1,15,00233 - ELETRON - ELETRON,00233 - ELETRON - ELETRON,ALTA FLORESTA D''OESTE-RO,-11.96890,-61.99080,331.00,15216300,RIO BRANCO,Setor Elétrico,Ativo
319,PCH ALTA FLORESTA MONTANTE 1,15151000,1,15,00233 - ELETRON - ELETRON,00233 - ELETRON - ELETRON,ALTA FLORESTA D''OESTE-RO,-11.95310,-62.01250,316.00,15216300,RIO BRANCO,Setor Elétrico,Ativo
320,PCH ALTA FLORESTA BARRAMENTO,15151500,1,15,00233 - ELETRON - ELETRON,00233 - ELETRON - ELETRON,ALTA FLORESTA D''OESTE-RO,-11.93830,-62.04030,316.00,15216300,RIO BRANCO,Setor Elétrico,Ativo
321,PCH ÂNGELO CASSOL BARRAMENTO,15152000,1,15,00768 - ÂNGELO CASSOL - ÂNGELO CASSOL,00768 - ÂNGELO CASSOL - ÂNGELO CASSOL,ALTA FLORESTA D''OESTE-RO,-11.93080,-62.10360,275.00,15216300,RIO BRANCO,Setor Elétrico,Ativo
322,PCH ÂNGELO CASSOL JUSANTE,15152500,1,15,00768 - ÂNGELO CASSOL - ÂNGELO CASSOL,00768 - ÂNGELO CASSOL - ÂNGELO CASSOL,ALTA FLORESTA D''OESTE-RO,-11.92940,-62.10810,278.00,15216300,RIO BRANCO,Setor Elétrico,Ativo
323,PCH CACHOEIRA CACHIMBO ALTO BARRAMENTO,15169000,1,15,00769 - CACHIMBO ALTO - CACHIMBO ALTO,00769 - CACHIMBO ALTO - CACHIMBO ALTO,ALTA FLORESTA D''OESTE-RO,-11.92530,-62.14670,254.00,15216300,RIO BRANCO,Setor Elétrico,Ativo
324,PCH CACHOEIRA CACHIMBO ALTO JUSANTE,15170200,1,15,00769 - CACHIMBO ALTO - CACHIMBO ALTO,00769 - CACHIMBO ALTO - CACHIMBO ALTO,ALTA FLORESTA D''OESTE-RO,-11.92720,-62.15470,238.00,15216300,RIO BRANCO,Setor Elétrico,Ativo
325,PCH RIO BRANCO BARRAMENTO,15170600,1,15,00564 - HIDROSSOL - HIDROSSOL,00564 - HIDROSSOL - HIDROSSOL,ALTA FLORESTA D''OESTE-RO,-11.91110,-62.18110,214.00,15216300,RIO BRANCO,Setor Elétrico,Ativo
326,PCH RIO BRANCO JUSANTE,15170700,1,15,00564 - HIDROSSOL - HIDROSSOL,00564 - HIDROSSOL - HIDROSSOL,ALTA FLORESTA D''OESTE-RO,-11.90610,-62.18420,204.00,15216300,RIO BRANCO,Setor Elétrico,Ativo
327,PCH FIGUEIRA MONTANTE,15170900,1,15,00306 - PCH FIGUEIRA - Consórcio PCH Figueira,00306 - PCH FIGUEIRA - Consórcio PCH Figueira,ALTA FLORESTA D''OESTE-RO,-12.05220,-62.17030,392.00,15216500,RIO SALDANHA,Setor Elétrico,Ativo
328,PCH FIGUEIRA BARRAMENTO,15171000,1,15,00306 - PCH FIGUEIRA - Consórcio PCH Figueira,00306 - PCH FIGUEIRA - Consórcio PCH Figueira,ALTA FLORESTA D''OESTE-RO,-11.99580,-62.17170,384.00,15216500,RIO SALDANHA,Setor Elétrico,Ativo
329,PCH FIQUEIRA JUSANTE,15171050,1,15,00306 - PCH FIGUEIRA - Consórcio PCH Figueira,00306 - PCH FIGUEIRA - Consórcio PCH Figueira,ALTA FLORESTA D''OESTE-RO,-11.98750,-62.17640,372.00,15216500,RIO SALDANHA,Setor Elétrico,Ativo
330,PCH SALDANHA JUSANTE,15171100,1,15,01109 - HIDROLUZ - Hidroluz Centrais Elétricas Ltda.,01109 - HIDROLUZ - Hidroluz Centrais Elétricas Ltda.,ALTA FLORESTA D''OESTE-RO,-11.95610,-62.18060,311.00,15216500,RIO SALDANHA,Setor Elétrico,Ativo
331,PCH MONTE BELO BARRAMENTO,15171800,1,15,00307 - ELETROSSOL - ELETROSSOL,00307 - ELETROSSOL - ELETROSSOL,ALTA FLORESTA D''OESTE-RO,-11.93360,-62.17920,292.00,15216500,RIO SALDANHA,Setor Elétrico,Ativo
332,PCH MONTE BELO JUSANTE,15172000,1,15,00307 - ELETROSSOL - ELETROSSOL,00307 - ELETROSSOL - ELETROSSOL,ALTA FLORESTA D''OESTE-RO,-11.92750,-62.18360,246.00,15216500,RIO SALDANHA,Setor Elétrico,Ativo
333,PRINCIPE DA BEIRA,15200000,1,15,00082 - CPRM - Cia de Pesquisa de Recursos Minerais,00001 - ANA - Agência Nacional de Águas ,COSTA MARQUES-RO,-12.42670,-64.42530,0.00,15210000,RIO GUAPORÉ,RHN,Ativo
334,UHE JIRAU PRÍNCIPE DA BEIRA,15200010,1,15,00342 - ESBR - ESBR,00342 - ESBR - ESBR,COSTA MARQUES-RO,-12.42670,-64.42530,210.00,15210000,RIO GUAPORÉ,Setor Elétrico,Ativo
335,BOCA DO POMPEU - JUSANTE,15248010,1,15,00082 - CPRM - Cia de Pesquisa de Recursos Minerais,00001 - ANA - Agência Nacional de Águas ,GUAJARÁ-MIRIM-RO,-10.91750,-65.04330,0.00,15221400,RIO OURO PRETO,RHN,Ativo
336,GUAJARÁ-MIRIM,15250000,1,15,00082 - CPRM - Cia de Pesquisa de Recursos Minerais,00001 - ANA - Agência Nacional de Águas ,GUAJARÁ-MIRIM-RO,-10.79250,-65.34780,109.29,15201000,RIO MAMORÉ,RHN,Ativo
337,GUAJARÁ-MIRIM,15250000,1,15,00082 - CPRM - Cia de Pesquisa de Recursos Minerais,00001 - ANA - Agência Nacional de Águas ,GUAJARÁ-MIRIM-RO,-10.79250,-65.34780,109.29,15201000,RIO MAMORÉ,CotaOnline,Ativo
338,UHE JIRAU GUAJARÁ-MIRIM,15250001,1,15,00342 - ESBR - ESBR,00342 - ESBR - ESBR,GUAJARÁ-MIRIM-RO,-10.72610,-65.34780,147.00,15201000,RIO MAMORÉ,Setor Elétrico,Ativo
339,SALVACION,15307000,1,15,00906 - SENAMHI-PERU - SENAMHI-PERU,00906 - SENAMHI-PERU - SENAMHI-PERU,PERU-PU,-12.83330,-71.50000,520.00,15200100,RIO MADRE DE DIOS,RHN,Ativo
340,PAKITZA,15308000,1,15,00906 - SENAMHI-PERU - SENAMHI-PERU,00906 - SENAMHI-PERU - SENAMHI-PERU,PERU-PU,-11.95000,-71.28330,319.00,15200100,RIO MADRE DE DIOS,RHN,Ativo
341,UHE JIRAU JUSANTE RIO BENI,15318000,1,15,00342 - ESBR - ESBR,00342 - ESBR - ESBR,NOVA MAMORE-RO,-10.35690,-65.36140,130.00,15200000,RIO MADEIRA,Setor Elétrico,Ativo
342,ABUNÃ,15320002,1,15,00082 - CPRM - Cia de Pesquisa de Recursos Minerais,00001 - ANA - Agência Nacional de Águas ,PORTO VELHO-RO,-9.70530,-65.36670,74.65,15200000,RIO MADEIRA,CotaOnline,Manutenção
343,ABUNÃ,15320002,1,15,00082 - CPRM - Cia de Pesquisa de Recursos Minerais,00001 - ANA - Agência Nacional de Águas ,PORTO VELHO-RO,-9.70530,-65.36670,74.65,15200000,RIO MADEIRA,RHN,Ativo
344,PLÁCIDO DE CASTRO,15324000,1,15,00082 - CPRM - Cia de Pesquisa de Recursos Minerais,00001 - ANA - Agência Nacional de Águas ,PLÁCIDO DE CASTRO-AC,-10.33780,-67.18310,0.00,15223000,RIO ABUNÃ,RHN,Ativo
345,UHE JIRAU NOVA CALIFORNIA,15324500,1,15,00342 - ESBR - ESBR,00342 - ESBR - ESBR,PORTO VELHO-RO,-9.89360,-66.61860,115.00,15223000,RIO ABUNÃ,Setor Elétrico,Ativo
346,MORADA NOVA - JUSANTE,15326000,1,15,00082 - CPRM - Cia de Pesquisa de Recursos Minerais,00001 - ANA - Agência Nacional de Águas ,PORTO VELHO-RO,-9.78470,-65.52750,0.00,15223000,RIO ABUNÃ,RHN,Ativo
347,MORADA NOVA - JUSANTE,15326000,1,15,00082 - CPRM - Cia de Pesquisa de Recursos Minerais,00001 - ANA - Agência Nacional de Águas ,PORTO VELHO-RO,-9.78470,-65.52750,0.00,15223000,RIO ABUNÃ,CotaOnline,Ativo
348,UHE JIRAU MORADA NOVA JUSANTE,15326010,1,15,00342 - ESBR - ESBR,00342 - ESBR - ESBR,PORTO VELHO-RO,-9.78470,-65.52750,110.00,15223000,RIO ABUNÃ,Setor Elétrico,Ativo
349,UHE JIRAU VELHA MUTUM-PARANÁ,15335000,1,15,00342 - ESBR - ESBR,00342 - ESBR - ESBR,PORTO VELHO-RO,-9.61750,-64.93310,92.38,15224100,RIO MUTUM-PARANA,Setor Elétrico,Ativo
350,UHE JIRAU VELHA MUTUM-PARANÁ,15335000,1,15,00342 - ESBR - ESBR,00342 - ESBR - ESBR,PORTO VELHO-RO,-9.61750,-64.93310,92.38,15224100,RIO MUTUM-PARANA,RHN,Ativo
351,UHE JIRAU RESERVATÓRIO,15340300,1,15,00342 - ESBR - ESBR,00342 - ESBR - ESBR,PORTO VELHO-RO,-9.28280,-64.67280,0.00,15200000,RIO MADEIRA,Setor Elétrico,Ativo
352,UHE JIRAU BARRAMENTO,15340500,1,15,00342 - ESBR - ESBR,00342 - ESBR - ESBR,PORTO VELHO-RO,-9.25030,-64.64830,69.00,15200000,RIO MADEIRA,Setor Elétrico,Ativo
353,UHE JIRAU PORTO R4,15340600,1,15,00342 - ESBR - ESBR,00342 - ESBR - ESBR,PORTO VELHO-RO,-9.24860,-64.62640,74.00,15200000,RIO MADEIRA,Setor Elétrico,Ativo
354,UHE SANTO ANTÔNIO JUSANTE CALDEIRÃO DO INFERNO,15341000,1,15,00354 - SANTO ANTONIO - SANTO ANTONIO,00354 - SANTO ANTONIO - SANTO ANTONIO,PORTO VELHO-RO,-9.20280,-64.60860,73.75,15200000,RIO MADEIRA,Setor Elétrico,Ativo
355,UHE SANTO ANTÔNIO MONTANTE JACIPARANÁ,15344000,1,15,00354 - SANTO ANTONIO - SANTO ANTONIO,00354 - SANTO ANTONIO - SANTO ANTONIO,PORTO VELHO-RO,-9.50110,-64.38170,77.90,15240200,RIO JACIPARANÁ,Setor Elétrico,Ativo
356,UHE SANTO ANTÔNIO JACIPARANÁ VILA,15345900,1,15,00354 - SANTO ANTONIO - SANTO ANTONIO,00354 - SANTO ANTONIO - SANTO ANTONIO,PORTO VELHO-RO,-9.26170,-64.40140,73.24,15240200,RIO JACIPARANÁ,Setor Elétrico,Ativo
357,UHE SANTO ANTÔNIO RESERVATÓRIO,15350500,1,15,00354 - SANTO ANTONIO - SANTO ANTONIO,00354 - SANTO ANTONIO - SANTO ANTONIO,PORTO VELHO-RO,-8.84190,-63.99500,0.00,15200000,RIO MADEIRA,Setor Elétrico,Ativo
358,UHE SANTO ANTÔNIO MONTANTE,15360000,1,15,00354 - SANTO ANTONIO - SANTO ANTONIO,00354 - SANTO ANTONIO - SANTO ANTONIO,PORTO VELHO-RO,-8.79670,-63.95830,0.00,15200000,RIO MADEIRA,Setor Elétrico,Ativo
359,UHE SANTO ANTÔNIO JUSANTE R-7,15380000,1,15,00354 - SANTO ANTONIO - SANTO ANTONIO,00354 - SANTO ANTONIO - SANTO ANTONIO,PORTO VELHO-RO,-8.78220,-63.93030,60.68,15200000,RIO MADEIRA,Setor Elétrico,Ativo
360,UHE SANTO ANTÔNIO PORTO VELHO,15390000,1,15,00354 - SANTO ANTONIO - SANTO ANTONIO,00354 - SANTO ANTONIO - SANTO ANTONIO,PORTO VELHO-RO,-8.74810,-63.91580,63.66,15200000,RIO MADEIRA,Setor Elétrico,Ativo
361,PORTO VELHO,15400000,1,15,00082 - CPRM - Cia de Pesquisa de Recursos Minerais,00001 - ANA - Agência Nacional de Águas ,PORTO VELHO-RO,-8.74830,-63.91690,42.88,15200000,RIO MADEIRA,CotaOnline,Ativo
362,PORTO VELHO,15400000,1,15,00082 - CPRM - Cia de Pesquisa de Recursos Minerais,00001 - ANA - Agência Nacional de Águas ,PORTO VELHO-RO,-8.74830,-63.91690,42.88,15200000,RIO MADEIRA,RHN,Ativo
363,PORTO VELHO,15400000,1,15,00082 - CPRM - Cia de Pesquisa de Recursos Minerais,00001 - ANA - Agência Nacional de Águas ,PORTO VELHO-RO,-8.74830,-63.91690,42.88,15200000,RIO MADEIRA,GDH,Ativo
364,PCH SANTA CRUZ DE MONTE NEGRO MONTANTE 2,15405000,1,15,00362 - CANAÃ - CANAÃ,00362 - CANAÃ - CANAÃ,MONTE NEGRO-RO,-10.47190,-63.25940,146.00,15230100,IGARAPÉ NOVA FLORESTA,Setor Elétrico,Ativo
365,PCH SANTA CRUZ DE MONTE NEGRO MONTANTE 1,15406000,1,15,00362 - CANAÃ - CANAÃ,00362 - CANAÃ - CANAÃ,MONTE NEGRO-RO,-10.43750,-63.23580,144.00,15230000,RIO JAMARI,Setor Elétrico,Ativo
366,PCH SANTA CRUZ DE MONTE NEGRO BARRAMENTO,15408600,1,15,00362 - CANAÃ - CANAÃ,00362 - CANAÃ - CANAÃ,MONTE NEGRO-RO,-10.23030,-63.23110,128.00,15230000,RIO JAMARI,Setor Elétrico,Ativo
367,PCH SANTA CRUZ DE MONTE NEGRO JUSANTE,15408700,1,15,00362 - CANAÃ - CANAÃ,00362 - CANAÃ - CANAÃ,MONTE NEGRO-RO,-10.20560,-63.11140,117.00,15230000,RIO JAMARI,Setor Elétrico,Ativo
368,PCH CANAÃ MONTANTE 2,15413000,1,15,00362 - CANAÃ - CANAÃ,00362 - CANAÃ - CANAÃ,ARIQUEMES-RO,-10.20220,-63.03470,130.00,15230700,RIO PARDO OU URURAM,Setor Elétrico,Ativo
369,PCH CANAÃ MONTANTE 1,15414000,1,15,00362 - CANAÃ - CANAÃ,00362 - CANAÃ - CANAÃ,ARIQUEMES-RO,-10.11280,-62.96190,133.00,15230710,RIO QUATRO CACHOEIRAS,Setor Elétrico,Ativo
370,PCH CANAÃ BARRAMENTO,15417980,1,15,00362 - CANAÃ - CANAÃ,00362 - CANAÃ - CANAÃ,ARIQUEMES-RO,-10.01940,-63.06060,115.00,15230050,RIO CANAÃ,Setor Elétrico,Ativo
371,PCH CANAÃ JUSANTE,15418000,1,15,00362 - CANAÃ - CANAÃ,00362 - CANAÃ - CANAÃ,ARIQUEMES-RO,-10.01830,-63.06220,108.00,15230050,RIO CANAÃ,Setor Elétrico,Ativo
372,PCH JAMARI BARRAMENTO,15423980,1,15,00362 - CANAÃ - CANAÃ,00362 - CANAÃ - CANAÃ,ARIQUEMES-RO,-9.93810,-63.07720,112.34,15230000,RIO JAMARI,Setor Elétrico,Ativo
373,PCH JAMARI JUSANTE 1,15424000,1,15,00362 - CANAÃ - CANAÃ,00362 - CANAÃ - CANAÃ,ARIQUEMES-RO,-9.93470,-63.07560,111.00,15230000,RIO JAMARI,Setor Elétrico,Ativo
374,ARIQUEMES,15430000,1,15,00082 - CPRM - Cia de Pesquisa de Recursos Minerais,00001 - ANA - Agência Nacional de Águas ,ARIQUEMES-RO,-9.92560,-63.07140,87.67,15230000,RIO JAMARI,CotaOnline,Manutenção
375,ARIQUEMES,15430000,1,15,00082 - CPRM - Cia de Pesquisa de Recursos Minerais,00001 - ANA - Agência Nacional de Águas ,ARIQUEMES-RO,-9.92560,-63.07140,87.67,15230000,RIO JAMARI,RHN,Ativo
376,UHE SAMUEL RIO BRANCO,15430900,1,15,00075 - ELETRONORTE - ELETRONORTE,00075 - ELETRONORTE - ELETRONORTE,ARIQUEMES-RO,-9.88670,-62.98470,0.00,15227700,RIO BRANCO,Setor Elétrico,Ativo
377,PCH JAMARI JUSANTE 2,15431500,1,15,00362 - CANAÃ - CANAÃ,00362 - CANAÃ - CANAÃ,ARIQUEMES-RO,-9.71640,-63.12190,107.00,15230000,RIO JAMARI,Setor Elétrico,Ativo
378,UHE SAMUEL RIO MASSANGANA,15431900,1,15,00075 - ELETRONORTE - ELETRONORTE,00075 - ELETRONORTE - ELETRONORTE,ALTO PARAÍSO-RO,-9.76030,-63.28810,0.00,15230900,RIO MASSANGANA,Setor Elétrico,Ativo
379,UHE SAMUEL RIO PRETO DO CRESPO,15444900,1,15,00075 - ELETRONORTE - ELETRONORTE,00075 - ELETRONORTE - ELETRONORTE,RIO CRESPO-RO,-9.55640,-62.95060,0.00,15231100,RIO PRETO DO CRESPO,Setor Elétrico,Ativo
380,UHE SAMUEL BARRAMENTO,15459080,1,15,00075 - ELETRONORTE - ELETRONORTE,00075 - ELETRONORTE - ELETRONORTE,CANDÉIAS DO JAMARI-RO,-8.75250,-63.45500,0.00,15230000,RIO JAMARI,Setor Elétrico,Ativo
381,UHE SAMUEL JUSANTE,15459090,1,15,00075 - ELETRONORTE - ELETRONORTE,00075 - ELETRONORTE - ELETRONORTE,CANDÉIAS DO JAMARI-RO,-8.74690,-63.46360,0.00,15230000,RIO JAMARI,Setor Elétrico,Ativo
382,PROSPERIDADE (EX. FOZ DO JAMARI),15490000,1,15,00082 - CPRM - Cia de Pesquisa de Recursos Minerais,00001 - ANA - Agência Nacional de Águas ,PORTO VELHO-RO,-8.45220,-63.51780,40.00,15200000,RIO MADEIRA,RHN,Ativo
383,UHE SANTO ANTÔNIO SÃO CARLOS,15490400,1,15,00354 - SANTO ANTONIO - SANTO ANTONIO,00354 - SANTO ANTONIO - SANTO ANTONIO,PORTO VELHO-RO,-8.44440,-63.50810,55.96,15200000,RIO MADEIRA,Setor Elétrico,Ativo
384,SANTA ISABEL,15550000,1,15,00082 - CPRM - Cia de Pesquisa de Recursos Minerais,00001 - ANA - Agência Nacional de Águas ,CANDÉIAS DO JAMARI-RO,-8.79860,-63.71060,0.00,15232000,RIO CANDEIAS,RHN,Ativo
385,PCH CACHOEIRA MONTANTE,15552005,1,15,00351 - JFG - JFG,00351 - JFG - JFG,VILHENA-RO,-12.50560,-60.47190,404.73,15240307,RIO AVILA,Setor Elétrico,Ativo
386,PCH CACHOEIRA BARRAMENTO,15552008,1,15,00351 - JFG - JFG,00351 - JFG - JFG,VILHENA-RO,-12.50420,-60.47140,404.94,15240307,RIO AVILA,Setor Elétrico,Ativo
387,UHE RONDON II MONTANTE 2,15552540,1,15,00158 - ELETROGOES S/A - ELETROGOES S/A,00158 - ELETROGOES S/A - ELETROGOES S/A,PIMENTA BUENO-RO,-12.39080,-60.48810,291.50,15240400,RIO COMEMORAÇÃO,Setor Elétrico,Ativo
388,UHE RONDON II MONTANTE 1,15552560,1,15,00158 - ELETROGOES S/A - ELETROGOES S/A,00158 - ELETROGOES S/A - ELETROGOES S/A,PIMENTA BUENO-RO,-12.18530,-60.59970,272.39,15240400,RIO COMEMORAÇÃO,Setor Elétrico,Ativo
389,UHE RONDON II RESERVATÓRIO,15552565,1,15,00158 - ELETROGOES S/A - ELETROGOES S/A,00158 - ELETROGOES S/A - ELETROGOES S/A,PIMENTA BUENO-RO,-12.00420,-60.68390,269.00,15240400,RIO COMEMORAÇÃO,Setor Elétrico,Ativo
390,UHE RONDON II BARRAMENTO,15552570,1,15,00158 - ELETROGOES S/A - ELETROGOES S/A,00158 - ELETROGOES S/A - ELETROGOES S/A,PIMENTA BUENO-RO,-11.99530,-60.69690,272.92,15240400,RIO COMEMORAÇÃO,Setor Elétrico,Ativo
391,UHE RONDON II JUSANTE,15552580,1,15,00158 - ELETROGOES S/A - ELETROGOES S/A,00158 - ELETROGOES S/A - ELETROGOES S/A,PIMENTA BUENO-RO,-11.95920,-60.70220,211.09,15240400,RIO COMEMORAÇÃO,Setor Elétrico,Ativo
392,FAZENDA FLOR DO CAMPO,15552600,1,15,00082 - CPRM - Cia de Pesquisa de Recursos Minerais,00001 - ANA - Agência Nacional de Águas ,PIMENTA BUENO-RO,-11.74890,-60.86780,185.00,15240400,RIO COMEMORAÇÃO,RHN,Ativo
393,CGH MARCOL BARRAMENTO,15552800,1,15,00587 - MARCOL - MARCOL,00587 - MARCOL - MARCOL,VILHENA-RO,-12.85390,-60.32920,289.00,15240310,RIO APEDIA  ou PIMENTA BUENO,Setor Elétrico,Ativo
394,CGH MARCOL JUSANTE,15552900,1,15,00587 - MARCOL - MARCOL,00587 - MARCOL - MARCOL,VILHENA-RO,-12.85500,-60.33030,373.00,15240310,RIO APEDIA  ou PIMENTA BUENO,Setor Elétrico,Ativo
395,PCH CASCATA CHUPINGUAIA MONTANTE,15553100,1,15,00561 - CHUPINGUAIA - CHUPINGUAIA,00561 - CHUPINGUAIA - CHUPINGUAIA,CHUPINGUAIA-RO,-12.75610,-60.80830,288.00,15240310,RIO APEDIA  ou PIMENTA BUENO,Setor Elétrico,Ativo
396,PCH CASCATA CHUPINGUAIA BARRAMENTO,15553150,1,15,00561 - CHUPINGUAIA - CHUPINGUAIA,00561 - CHUPINGUAIA - CHUPINGUAIA,CHUPINGUAIA-RO,-12.70280,-60.88310,258.00,15240310,RIO APEDIA  ou PIMENTA BUENO,Setor Elétrico,Ativo
397,PCH CASCATA CHUPINGUAIA CÂMARA DE CARGA,15553160,1,15,00561 - CHUPINGUAIA - CHUPINGUAIA,00561 - CHUPINGUAIA - CHUPINGUAIA,CHUPINGUAIA-RO,-12.69280,-60.88080,265.00,15240310,RIO APEDIA  ou PIMENTA BUENO,Setor Elétrico,Ativo
398,PCH CASCATA CHUPINGUAIA JUSANTE,15553180,1,15,00561 - CHUPINGUAIA - CHUPINGUAIA,00561 - CHUPINGUAIA - CHUPINGUAIA,CHUPINGUAIA-RO,-12.69000,-60.88310,269.00,15240310,RIO APEDIA  ou PIMENTA BUENO,Setor Elétrico,Ativo
399,PCH CHUPINGUAIA MONTANTE,15553200,1,15,00668 - USINACACHOEIRA - USINACACHOEIRA,00668 - USINACACHOEIRA - USINACACHOEIRA,CHUPINGUAIA-RO,-12.59500,-60.88310,300.19,15240312,RIO CHUPINGUAIA,Setor Elétrico,Ativo
400,PCH CHUPINGUAIA BARRAMENTO,15553300,1,15,00668 - USINACACHOEIRA - USINACACHOEIRA,00668 - USINACACHOEIRA - USINACACHOEIRA,CHUPINGUAIA-RO,-12.58810,-60.93390,295.51,15240312,RIO CHUPINGUAIA,Setor Elétrico,Ativo
401,PCH CHUPINGUAIA JUSANTE,15553350,1,15,00668 - USINACACHOEIRA - USINACACHOEIRA,00668 - USINACACHOEIRA - USINACACHOEIRA,CHUPINGUAIA-RO,-12.58690,-60.93530,266.87,15240312,RIO CHUPINGUAIA,Setor Elétrico,Ativo
402,PCH PRIMAVERA MONTANTE 2,15553800,1,15,00290 - ELETROPRIMAVERA - ELETROPRIMAVERA,00290 - ELETROPRIMAVERA - ELETROPRIMAVERA,PRIMAVERA DE RONDÔNIA-RO,-12.26780,-61.07560,214.00,15240310,RIO APEDIA  ou PIMENTA BUENO,Setor Elétrico,Ativo
403,PCH CESAR FILHO BARRAMENTO,15553900,1,15,00530 - AMAZONAS - AMAZONAS,00530 - AMAZONAS - AMAZONAS,CHUPINGUAIA-RO,-12.27080,-61.18720,276.00,15240309,RIO TABOCA,Setor Elétrico,Ativo
404,PCH CESAR FILHO JUSANTE,15553950,1,15,00530 - AMAZONAS - AMAZONAS,00530 - AMAZONAS - AMAZONAS,CHUPINGUAIA-RO,-12.25940,-61.18890,232.00,15240309,RIO TABOCA,Setor Elétrico,Ativo
405,PCH PRIMAVERA MONTANTE 1,15555300,1,15,00290 - ELETROPRIMAVERA - ELETROPRIMAVERA,00290 - ELETROPRIMAVERA - ELETROPRIMAVERA,PRIMAVERA DE RONDÔNIA-RO,-11.94750,-61.22000,191.00,15240310,RIO APEDIA  ou PIMENTA BUENO,Setor Elétrico,Ativo
406,PCH PRIMAVERA BARRAMENTO,15555500,1,15,00290 - ELETROPRIMAVERA - ELETROPRIMAVERA,00290 - ELETROPRIMAVERA - ELETROPRIMAVERA,PRIMAVERA DE RONDÔNIA-RO,-11.90390,-61.23310,200.00,15240310,RIO APEDIA  ou PIMENTA BUENO,Setor Elétrico,Ativo
407,PCH PRIMAVERA JUSANTE,15555800,1,15,00290 - ELETROPRIMAVERA - ELETROPRIMAVERA,00290 - ELETROPRIMAVERA - ELETROPRIMAVERA,PRIMAVERA DE RONDÔNIA-RO,-11.90250,-61.23970,194.00,15240310,RIO APEDIA  ou PIMENTA BUENO,Setor Elétrico,Ativo
408,PIMENTA BUENO,15558000,1,15,00082 - CPRM - Cia de Pesquisa de Recursos Minerais,00001 - ANA - Agência Nacional de Águas ,PIMENTA BUENO-RO,-11.68360,-61.19220,0.00,15240310,RIO APEDIA  ou PIMENTA BUENO,RHN,Ativo
409,CACOAL,15558200,1,15,00082 - CPRM - Cia de Pesquisa de Recursos Minerais,00001 - ANA - Agência Nacional de Águas ,CACOAL-RO,-11.44440,-61.44080,160.00,15240347,RIO PIRARA,RHN,Ativo
410,FAZENDA APURÚ,15558500,1,15,00082 - CPRM - Cia de Pesquisa de Recursos Minerais,00001 - ANA - Agência Nacional de Águas ,JI-PARANÁ-RO,-11.00170,-62.11720,0.00,15240425,RIO URUPA,RHN,Ativo
411,ESPIGÃO DO OESTE,15558700,1,15,00082 - CPRM - Cia de Pesquisa de Recursos Minerais,00001 - ANA - Agência Nacional de Águas ,ESPIGÃO D''OESTE-RO,-11.57250,-61.05110,0.00,15240352,RIO PALMEIRAS,RHN,Ativo
412,SÍTIO BELA VISTA,15559000,1,15,00082 - CPRM - Cia de Pesquisa de Recursos Minerais,00001 - ANA - Agência Nacional de Águas ,PIMENTA BUENO-RO,-11.65250,-61.21500,0.00,15240000,RIO JI-PARANÁ (ou MACHADO),RHN,Ativo
413,JI-PARANÁ,15560000,1,15,00082 - CPRM - Cia de Pesquisa de Recursos Minerais,00001 - ANA - Agência Nacional de Águas ,JI-PARANÁ-RO,-10.87360,-61.93560,129.60,15240000,RIO JI-PARANÁ (ou MACHADO),RHN,Ativo
414,OURO PRETO DO OESTE,15562000,1,15,00082 - CPRM - Cia de Pesquisa de Recursos Minerais,00001 - ANA - Agência Nacional de Águas ,OURO PRETO DO OESTE-RO,-10.77110,-62.25720,0.00,15240465,IGARAPÉ BOA VISTA,RHN,Ativo
415,JARUARU,15564000,1,15,00082 - CPRM - Cia de Pesquisa de Recursos Minerais,00001 - ANA - Agência Nacional de Águas ,JARU-RO,-10.83170,-62.89250,0.00,15240500,RIO JARU,RHN,Ativo
416,JARU,15565000,1,15,00082 - CPRM - Cia de Pesquisa de Recursos Minerais,00001 - ANA - Agência Nacional de Águas ,JARU-RO,-10.44580,-62.46560,133.30,15240500,RIO JARU,CotaOnline,Ativo
417,JARU,15565000,1,15,00082 - CPRM - Cia de Pesquisa de Recursos Minerais,00001 - ANA - Agência Nacional de Águas ,JARU-RO,-10.44580,-62.46560,133.30,15240500,RIO JARU,RHN,Ativo
418,PIRATININGA,15575000,1,15,00082 - CPRM - Cia de Pesquisa de Recursos Minerais,00001 - ANA - Agência Nacional de Águas ,MACHADINHO D''OESTE-RO,-9.34720,-61.93470,0.00,15240600,RIO MACHADINHO,RHN,Ativo
419,TABAJARA,15580000,1,15,00082 - CPRM - Cia de Pesquisa de Recursos Minerais,00001 - ANA - Agência Nacional de Águas ,MACHADINHO D''OESTE-RO,-8.93220,-62.05560,68.15,15240000,RIO JI-PARANÁ (ou MACHADO),RHN,Ativo
420,MINERAÇÃO JACUNDÁ,15590000,1,15,00082 - CPRM - Cia de Pesquisa de Recursos Minerais,00001 - ANA - Agência Nacional de Águas ,ITAPUÃ DO OESTE-RO,-9.17890,-62.95220,86.00,15240800,RIO JACUNDÁ,RHN,Ativo
421,UHE SANTO ANTÔNIO PAPAGAIO,15627000,1,15,00354 - SANTO ANTONIO - SANTO ANTONIO,00354 - SANTO ANTONIO - SANTO ANTONIO,PORTO VELHO-RO,-8.18030,-63.09110,53.15,15200000,RIO MADEIRA,Setor Elétrico,Ativo
422,UHE SANTO ANTÔNIO HUMAITÁ,15629000,1,15,00354 - SANTO ANTONIO - SANTO ANTONIO,00354 - SANTO ANTONIO - SANTO ANTONIO,HUMAITÁ-AM,-7.50530,-63.02110,50.44,15200000,RIO MADEIRA,Setor Elétrico,Ativo
423,HUMAITÁ,15630000,1,15,00426 - CONSTRUFAM - CONSTRUFAM,00001 - ANA - Agência Nacional de Águas ,HUMAITÁ-AM,-7.50280,-63.01830,0.00,15200000,RIO MADEIRA,RHN,Ativo
424,HUMAITÁ,15630000,1,15,00426 - CONSTRUFAM - CONSTRUFAM,00001 - ANA - Agência Nacional de Águas ,HUMAITÁ-AM,-7.50280,-63.01830,0.00,15200000,RIO MADEIRA,CotaOnline,Ativo
425,MAICI-MIRIM,15660000,1,15,00426 - CONSTRUFAM - CONSTRUFAM,00001 - ANA - Agência Nacional de Águas ,HUMAITÁ-AM,-7.63030,-62.65530,0.00,15250880,RIO MAICIMIRIM,RHN,Ativo
426,PCH JUINA MONTANTE 2,15710000,1,15,00325 - JURUENA - JURUENA,00325 - JURUENA - JURUENA,JUÍNA-MT,-11.57780,-59.20580,302.00,15261250,RIO VINTE E UM,Setor Elétrico,Ativo
427,PCH JUINA MONTANTE 1,15720000,1,15,00325 - JURUENA - JURUENA,00325 - JURUENA - JURUENA,JUÍNA-MT,-11.41310,-59.17030,297.00,15261280,RIO CINTA LARGA,Setor Elétrico,Ativo
428,PCH JUINA BARRAMENTO,15730000,1,15,00325 - JURUENA - JURUENA,00325 - JURUENA - JURUENA,JUÍNA-MT,-11.31140,-59.22250,271.00,15260000,RIO ARIPUANÃ,Setor Elétrico,Ativo
429,PCH JUINA JUSANTE,15740000,1,15,00325 - JURUENA - JURUENA,00325 - JURUENA - JURUENA,JUÍNA-MT,-11.30970,-59.22360,300.00,15260000,RIO ARIPUANÃ,Setor Elétrico,Ativo
430,CGH ARIPUANÃ MONTANTE,15748000,1,15,00325 - JURUENA - JURUENA,00325 - JURUENA - JURUENA,ARIPUANÃ-MT,-10.32190,-59.46220,227.00,15260000,RIO ARIPUANÃ,Setor Elétrico,Ativo
431,UHE DARDANELOS MONTANTE,15750500,1,15,00531 - ÁGUAS DA PEDRA - ÁGUAS DA PEDRA,00531 - ÁGUAS DA PEDRA - ÁGUAS DA PEDRA,ARIPUANÃ-MT,-10.18310,-59.47190,216.80,15260000,RIO ARIPUANÃ,Setor Elétrico,Ativo
432,UHE DARDANELOS BARRAMENTO,15750550,1,15,00531 - ÁGUAS DA PEDRA - ÁGUAS DA PEDRA,00531 - ÁGUAS DA PEDRA - ÁGUAS DA PEDRA,ARIPUANÃ-MT,-10.16110,-59.46060,218.00,15260000,RIO ARIPUANÃ,Setor Elétrico,Ativo
433,UHE DARDANELOS JUSANTE,15750600,1,15,00531 - ÁGUAS DA PEDRA - ÁGUAS DA PEDRA,00531 - ÁGUAS DA PEDRA - ÁGUAS DA PEDRA,ARIPUANÃ-MT,-10.11000,-59.43720,117.73,15260000,RIO ARIPUANÃ,Setor Elétrico,Ativo
434,PCH FAXINAL II MONTANTE,15753900,1,15,00492 - DARDANELOS - DARDANELOS,00492 - DARDANELOS - DARDANELOS,ARIPUANÃ-MT,-10.19860,-59.46860,218.00,15260000,RIO ARIPUANÃ,Setor Elétrico,Ativo
435,PCH FAXINAL I JUSANTE,15754000,1,15,00492 - DARDANELOS - DARDANELOS,00492 - DARDANELOS - DARDANELOS,ARIPUANÃ-MT,-10.16470,-59.44670,167.00,15260000,RIO ARIPUANÃ,Setor Elétrico,Ativo
436,FAZENDA VISTA ALEGRE,15860000,1,15,00426 - CONSTRUFAM - CONSTRUFAM,00001 - ANA - Agência Nacional de Águas ,NOVO ARIPUANÃ-AM,-4.89720,-60.02530,0.00,15200000,RIO MADEIRA,RHN,Manutenção
437,BORBA,15900000,1,15,00426 - CONSTRUFAM - CONSTRUFAM,00001 - ANA - Agência Nacional de Águas ,BORBA-AM,-4.38920,-59.59860,0.00,15200000,RIO MADEIRA,CotaOnline,Ativo
438,SANTARÉM SUCUNDURI,15910000,1,15,00426 - CONSTRUFAM - CONSTRUFAM,00001 - ANA - Agência Nacional de Águas ,APUÍ-AM,-6.79560,-59.04220,49.00,15270100,RIO SUCUNDURI,RHN,Ativo
439,UHE PITINGA MONTANTE,16018000,1,16,00588 - TABOCA - TABOCA,00588 - TABOCA - TABOCA,PRESIDENTE FIGUEIREDO-AM,-0.58500,-59.77610,128.00,16261000,RIO PITINGA,Setor Elétrico,Ativo
440,UHE PITINGA SERRA,16019000,1,16,00588 - TABOCA - TABOCA,00588 - TABOCA - TABOCA,PRESIDENTE FIGUEIREDO-AM,-0.59560,-59.77720,113.00,16718200,IGARAPÉ DA SERRA,Setor Elétrico,Ativo
441,UHE PITINGA BARRAMENTO,16020000,1,16,00588 - TABOCA - TABOCA,00588 - TABOCA - TABOCA,PRESIDENTE FIGUEIREDO-AM,-0.86580,-59.60470,122.00,16261000,RIO PITINGA,Setor Elétrico,Ativo
442,UHE PITINGA JUSANTE,16020100,1,16,00588 - TABOCA - TABOCA,00588 - TABOCA - TABOCA,PRESIDENTE FIGUEIREDO-AM,-0.86610,-59.60110,70.00,16261000,RIO PITINGA,Setor Elétrico,Ativo
443,UHE BALBINA RIO PITINGA,16020200,1,16,00194 - AMAZONAS - Amazonas Geração e Transmissão de Energia S.A.,00194 - AMAZONAS - Amazonas Geração e Transmissão de Energia S.A.,PRESIDENTE FIGUEIREDO-AM,-0.99110,-59.47970,58.00,16261000,RIO PITINGA,Setor Elétrico,Ativo
444,UHE BALBINA RIO PITINGUINHA,16024900,1,16,00194 - AMAZONAS - Amazonas Geração e Transmissão de Energia S.A.,00194 - AMAZONAS - Amazonas Geração e Transmissão de Energia S.A.,PRESIDENTE FIGUEIREDO-AM,-1.07810,-59.67390,52.00,16766550,Rio Piting,Setor Elétrico,Ativo
445,ITACOATIARA,16030000,1,16,00082 - CPRM - Cia de Pesquisa de Recursos Minerais,00001 - ANA - Agência Nacional de Águas ,ITACOATIARA-AM,-3.15390,-58.41140,0.00,10001000,RIO SOLIMÕES/AMAZONAS,RHN,Ativo
446,UHE BALBINA MONTANTE,16062000,1,16,00194 - AMAZONAS - Amazonas Geração e Transmissão de Energia S.A.,00194 - AMAZONAS - Amazonas Geração e Transmissão de Energia S.A.,PRESIDENTE FIGUEIREDO-AM,-1.21060,-60.23470,51.00,16260000,RIO UATUMA,Setor Elétrico,Ativo
447,UHE BALBINA RIO TUCUMARI,16070900,1,16,00194 - AMAZONAS - Amazonas Geração e Transmissão de Energia S.A.,00194 - AMAZONAS - Amazonas Geração e Transmissão de Energia S.A.,PRESIDENTE FIGUEIREDO-AM,-1.54750,-59.41500,51.00,16260050,Igarapé Tu,Setor Elétrico,Ativo
448,UHE BALBINA BARRAMENTO,16070980,1,16,00194 - AMAZONAS - Amazonas Geração e Transmissão de Energia S.A.,00194 - AMAZONAS - Amazonas Geração e Transmissão de Energia S.A.,PRESIDENTE FIGUEIREDO-AM,-1.91610,-59.47560,52.00,16260000,RIO UATUMA,Setor Elétrico,Ativo
449,UHE BALBINA BARRAMENTO CANAL DE FUGA,16070990,1,16,00194 - AMAZONAS - Amazonas Geração e Transmissão de Energia S.A.,00194 - AMAZONAS - Amazonas Geração e Transmissão de Energia S.A.,PRESIDENTE FIGUEIREDO-AM,-1.91610,-59.47440,0.00,16260000,RIO UATUMA,Setor Elétrico,Ativo
450,UHE BALBINA JUSANTE,16090000,1,16,00194 - AMAZONAS - Amazonas Geração e Transmissão de Energia S.A.,00194 - AMAZONAS - Amazonas Geração e Transmissão de Energia S.A.,PRESIDENTE FIGUEIREDO-AM,-1.94940,-59.47670,28.00,16260000,RIO UATUMA,Setor Elétrico,Ativo
451,CACHOEIRA MORENA,16100000,1,16,00082 - CPRM - Cia de Pesquisa de Recursos Minerais,00001 - ANA - Agência Nacional de Águas ,PRESIDENTE FIGUEIREDO-AM,-2.10610,-59.34420,0.00,16260000,RIO UATUMA,RHN,Ativo
452,GARGANTA,16430000,1,16,00082 - CPRM - Cia de Pesquisa de Recursos Minerais,00001 - ANA - Agência Nacional de Águas ,ORIXIMINÁ-PA,-0.99780,-57.04310,0.00,16700000,RIO TROMBETAS,RHN,Ativo
453,ESTIRÃO DA ANGÉLICA,16500000,1,16,00082 - CPRM - Cia de Pesquisa de Recursos Minerais,00001 - ANA - Agência Nacional de Águas ,ORIXIMINÁ-PA,-1.10060,-57.05690,11.83,16740000,RIO MAPUERA OU URUCURINA,RHN,Ativo
454,TABULEIRO  -  REBIO TROMBETAS,16661000,1,16,00082 - CPRM - Cia de Pesquisa de Recursos Minerais,00001 - ANA - Agência Nacional de Águas ,ORIXIMINÁ-PA,-1.37060,-56.85190,0.00,16700000,RIO TROMBETAS,RHN,Ativo
455,VISTA ALEGRE - CONJ 1,16800000,1,16,00082 - CPRM - Cia de Pesquisa de Recursos Minerais,00001 - ANA - Agência Nacional de Águas ,ORIXIMINÁ-PA,-1.10140,-56.04000,5.31,16760000,RIO CUMINA / EREPECURU / P.D''OESTE,RHN,Ativo
456,ORIXIMINÁ,16900000,1,16,00082 - CPRM - Cia de Pesquisa de Recursos Minerais,00001 - ANA - Agência Nacional de Águas ,ORIXIMINÁ-PA,-1.77640,-55.86220,0.00,16700000,RIO TROMBETAS,RHN,Ativo
457,ÓBIDOS,17050001,1,17,00082 - CPRM - Cia de Pesquisa de Recursos Minerais,00001 - ANA - Agência Nacional de Águas ,ÓBIDOS-PA,-1.91920,-55.51310,0.00,10001000,RIO SOLIMÕES/AMAZONAS,RHN,Ativo
458,ÓBIDOS,17050001,1,17,00082 - CPRM - Cia de Pesquisa de Recursos Minerais,00001 - ANA - Agência Nacional de Águas ,ÓBIDOS-PA,-1.91920,-55.51310,0.00,10001000,RIO SOLIMÕES/AMAZONAS,CotaOnline,Ativo
459,PCH SANTA LÚCIA I E II MONTANTE 2,17090400,1,17,00224 - MAGGI - MAGGI,00224 - MAGGI - MAGGI,CAMPOS DE JÚLIO-MT,-13.59560,-59.03250,490.00,17201000,RIO JURUENA,Setor Elétrico,Ativo
460,PCH SANTA LÚCIA I E II MONTANTE,17090500,1,17,00224 - MAGGI - MAGGI,00224 - MAGGI - MAGGI,SAPEZAL-MT,-13.55670,-59.02830,479.00,17201000,RIO JURUENA,Setor Elétrico,Ativo
461,PCH SANTA LÚCIA I E II BARRAMENTO,17090580,1,17,00224 - MAGGI - MAGGI,00224 - MAGGI - MAGGI,SAPEZAL-MT,-13.54360,-59.03030,477.00,17201000,RIO JURUENA,Setor Elétrico,Ativo
462,PCH SANTA LÚCIA I E II JUSANTE,17090600,1,17,00224 - MAGGI - MAGGI,00224 - MAGGI - MAGGI,SAPEZAL-MT,-13.54250,-59.02500,466.00,17201000,RIO JURUENA,Setor Elétrico,Ativo
463,PCH SEGREDO MONTANTE,17091030,1,17,00745 - SEGREDO - SEGREDO,00745 - SEGREDO - SEGREDO,CAMPOS DE JÚLIO-MT,-13.42280,-59.00140,454.00,17201000,RIO JURUENA,Setor Elétrico,Ativo
464,PCH CIDEZAL BARRAMENTO,17091040,1,17,00485 - CAMPOS DE JULIO - CAMPOS DE JULIO,00485 - CAMPOS DE JULIO - CAMPOS DE JULIO,CAMPOS DE JÚLIO-MT,-13.36970,-59.01250,416.00,17201000,RIO JURUENA,Setor Elétrico,Ativo
465,PCH CIDEZAL JUSANTE,17091045,1,17,00485 - CAMPOS DE JULIO - CAMPOS DE JULIO,00485 - CAMPOS DE JULIO - CAMPOS DE JULIO,CAMPOS DE JÚLIO-MT,-13.36890,-59.01470,414.00,17201000,RIO JURUENA,Setor Elétrico,Ativo
466,PCH SAPEZAL BARRAMENTO,17091047,1,17,00636 - SAPEZAL - SAPEZAL,00636 - SAPEZAL - SAPEZAL,SAPEZAL-MT,-13.26640,-59.01940,390.00,17201000,RIO JURUENA,Setor Elétrico,Ativo
467,PCH SAPEZAL JUSANTE,17091048,1,17,00636 - SAPEZAL - SAPEZAL,00636 - SAPEZAL - SAPEZAL,SAPEZAL-MT,-13.26610,-59.01830,387.00,17201000,RIO JURUENA,Setor Elétrico,Ativo
468,PCH SEGREDO BARRAMENTO,17091050,1,17,00745 - SEGREDO - SEGREDO,00745 - SEGREDO - SEGREDO,CAMPOS DE JÚLIO-MT,-13.22390,-59.02670,380.00,17201000,RIO JURUENA,Setor Elétrico,Ativo
469,PCH ILHA COMPRIDA BARRAMENTO,17091080,1,17,00732 - ILHA COMPRIDA - ILHA COMPRIDA,00732 - ILHA COMPRIDA - ILHA COMPRIDA,SAPEZAL-MT,-13.19780,-58.98390,362.00,17201000,RIO JURUENA,Setor Elétrico,Ativo
470,PCH ILHA COMPRIDA JUSANTE,17091090,1,17,00732 - ILHA COMPRIDA - ILHA COMPRIDA,00732 - ILHA COMPRIDA - ILHA COMPRIDA,SAPEZAL-MT,-13.19720,-58.98310,352.00,17201000,RIO JURUENA,Setor Elétrico,Ativo
471,PCH PARECIS BARRAMENTO,17091093,1,17,00599 - PARECIS - PARECIS,00599 - PARECIS - PARECIS,CAMPOS DE JÚLIO-MT,-13.07420,-58.97580,346.00,17201000,RIO JURUENA,Setor Elétrico,Ativo
472,PCH PARECIS JUSANTE,17091095,1,17,00599 - PARECIS - PARECIS,00599 - PARECIS - PARECIS,CAMPOS DE JÚLIO-MT,-13.07190,-58.97640,345.00,17201000,RIO JURUENA,Setor Elétrico,Ativo
473,PCH RONDON BARRAMENTO,17091096,1,17,00623 - RONDON - RONDON,00623 - RONDON - RONDON,CAMPOS DE JÚLIO-MT,-12.90360,-58.91280,296.00,17201000,RIO JURUENA,Setor Elétrico,Ativo
474,PCH RONDON JUSANTE,17091097,1,17,00623 - RONDON - RONDON,00623 - RONDON - RONDON,CAMPOS DE JÚLIO-MT,-12.90000,-58.91360,294.00,17201000,RIO JURUENA,Setor Elétrico,Ativo
475,PCH TELEGRÁFICA BARRAMENTO,17091098,1,17,00660 - TELEGRÁFICA - TELEGRÁFICA,00660 - TELEGRÁFICA - TELEGRÁFICA,CAMPOS DE JÚLIO-MT,-12.84810,-58.92750,289.00,17201000,RIO JURUENA,Setor Elétrico,Ativo
476,PCH TELEGRÁFICA JUSANTE,17091099,1,17,00660 - TELEGRÁFICA - TELEGRÁFICA,00660 - TELEGRÁFICA - TELEGRÁFICA,CAMPOS DE JÚLIO-MT,-12.84500,-58.92920,289.00,17201000,RIO JURUENA,Setor Elétrico,Ativo
477,PCH DIVISA MONTANTE 2,17091130,1,17,00731 - DIVISA - DIVISA,00731 - DIVISA - DIVISA,CAMPOS DE JÚLIO-MT,-13.49920,-59.18560,495.00,17210480,RIO FORMIGA,Setor Elétrico,Ativo
478,PCH DIVISA MONTANTE 1,17091150,1,17,00731 - DIVISA - DIVISA,00731 - DIVISA - DIVISA,CAMPOS DE JÚLIO-MT,-13.37830,-59.14640,465.00,17210480,RIO FORMIGA,Setor Elétrico,Ativo
479,PCH DIVISA BARRAMENTO,17091160,1,17,00731 - DIVISA - DIVISA,00731 - DIVISA - DIVISA,CAMPOS DE JÚLIO-MT,-13.36310,-59.14250,446.00,17210480,RIO FORMIGA,Setor Elétrico,Ativo
480,PCH DIVISA JUSANTE,17091170,1,17,00731 - DIVISA - DIVISA,00731 - DIVISA - DIVISA,CAMPOS DE JÚLIO-MT,-13.34890,-59.15080,409.00,17210480,RIO FORMIGA,Setor Elétrico,Ativo
481,PCH BURITI MONTANTE 2,17091180,1,17,00235 - FOCKINK - FOCKINK,00235 - FOCKINK - FOCKINK,SAPEZAL-MT,-13.63170,-58.66420,509.00,17211600,RIO BURITI,Setor Elétrico,Ativo
482,PCH BURITI MONTANTE 1,17091200,1,17,00235 - FOCKINK - FOCKINK,00235 - FOCKINK - FOCKINK,SAPEZAL-MT,-13.42000,-58.60470,480.00,17211600,RIO BURITI,Setor Elétrico,Ativo
483,PCH JUÍ 117 MONTANTE 2,17091210,1,17,01096 - JUÍNA - PCH Juína S.A.,01096 - JUÍNA - PCH Juína S.A.,CAMPOS DE JÚLIO-MT,-13.45720,-59.39030,429.00,17210250,RIO JUINA,Setor Elétrico,Ativo
484,PCH BURITI BARRAMENTO,17091300,1,17,00235 - FOCKINK - FOCKINK,00235 - FOCKINK - FOCKINK,SAPEZAL-MT,-13.40560,-58.59720,464.00,17211600,RIO BURITI,Setor Elétrico,Ativo
485,PCH JUÍ 117 MONTANTE 1,17091310,1,17,01096 - JUÍNA - PCH Juína S.A.,01096 - JUÍNA - PCH Juína S.A.,CAMPOS DE JÚLIO-MT,-13.38560,-59.39220,418.00,17210250,RIO JUINA,Setor Elétrico,Ativo
486,PCH BURITI JUSANTE,17091400,1,17,00235 - FOCKINK - FOCKINK,00235 - FOCKINK - FOCKINK,SAPEZAL-MT,-13.39470,-58.59190,463.00,17211600,RIO BURITI,Setor Elétrico,Ativo
487,PCH JUÍ 117 JUSANTE,17091410,1,17,01096 - JUÍNA - PCH Juína S.A.,01096 - JUÍNA - PCH Juína S.A.,CAMPOS DE JÚLIO-MT,-13.36170,-59.39500,382.00,17210250,RIO JUINA,Setor Elétrico,Ativo
488,FAZENDA RODIAL,17091450,1,17,00108 - HYDROCONSULT - HYDROCONSULT,00091 - SEMA-MT - SEMA-MT,SAPEZAL-MT,-13.54500,-58.63720,0.00,17211600,RIO BURITI,RHN,Ativo
489,PCH SACRE 2 RIO VERDE,17091560,1,17,00302 - BCE - BCE,00302 - BCE - BCE,BRASNORTE-MT,-13.54640,-58.00280,0.00,17211430,RIO VERDE OU TAUIUINA,Setor Elétrico,Ativo
490,PCH SACRE 2 MONTANTE 2,17091580,1,17,00302 - BCE - BCE,00302 - BCE - BCE,BRASNORTE-MT,-13.29250,-58.13470,420.00,17211400,RIO SACRE,Setor Elétrico,Ativo
491,PCH SACRE 2 MONTANTE 1,17091600,1,17,00302 - BCE - BCE,00302 - BCE - BCE,BRASNORTE-MT,-13.02580,-58.18440,394.79,17211400,RIO SACRE,Setor Elétrico,Ativo
492,PCH SACRE 2 JUSANTE,17092850,1,17,00302 - BCE - BCE,00302 - BCE - BCE,BRASNORTE-MT,-12.96000,-58.25080,0.00,17211400,RIO SACRE,Setor Elétrico,Ativo
493,CAMPO NOVO DO PARECIS,17092960,1,17,00091 - SEMA-MT - SEMA-MT,00091 - SEMA-MT - SEMA-MT,CAMPO NOVO DO PARECIS-MT,-12.79830,-58.39690,67.00,17211000,RIO PAPAGAIO,RHN,Ativo
494,MT-170,17093010,1,17,00108 - HYDROCONSULT - HYDROCONSULT,00091 - SEMA-MT - SEMA-MT,JUÍNA-MT,-11.35640,-58.35360,0.00,17211900,RIO JUINA MIRIM,RHN,Ativo
495,PCH GARGANTA DA JARARACA MONTANTE 1,17093400,1,17,00274 - RIO DO SANGUE - RIO DO SANGUE,00274 - RIO DO SANGUE - RIO DO SANGUE,CAMPO NOVO DO PARECIS-MT,-13.86220,-57.78560,454.00,17212000,RIO DO SANGUE,Setor Elétrico,Ativo
496,PCH GARGANTA DA JARARACA MONTANTE 2,17093500,1,17,00274 - RIO DO SANGUE - RIO DO SANGUE,00274 - RIO DO SANGUE - RIO DO SANGUE,CAMPO NOVO DO PARECIS-MT,-13.47330,-57.64170,419.00,17212000,RIO DO SANGUE,Setor Elétrico,Ativo
497,PCH GARGANTA DA JARARACA BARRAMENTO,17093600,1,17,00274 - RIO DO SANGUE - RIO DO SANGUE,00274 - RIO DO SANGUE - RIO DO SANGUE,CAMPO NOVO DO PARECIS-MT,-13.38780,-57.62250,401.00,17212000,RIO DO SANGUE,Setor Elétrico,Ativo
498,PCH GARGANTA DA JARARACA  JUSANTE,17093700,1,17,00274 - RIO DO SANGUE - RIO DO SANGUE,00274 - RIO DO SANGUE - RIO DO SANGUE,CAMPO NOVO DO PARECIS-MT,-13.38670,-57.62440,370.00,17212000,RIO DO SANGUE,Setor Elétrico,Ativo
499,PCH INXU BARRAMENTO,17093750,1,17,00770 - INXU - Inxú Geradora e Comercializadora de Energia E...,00770 - INXU - Inxú Geradora e Comercializadora de Energia E...,NOVA MARINGÁ-MT,-13.35560,-57.61360,363.30,17212000,RIO DO SANGUE,Setor Elétrico,Ativo
500,PCH BARUITO BARRAMENTO,17094000,1,17,00184 - GLOBAL - GLOBAL,00184 - GLOBAL - GLOBAL,CAMPO NOVO DO PARECIS-MT,-13.31970,-57.59780,330.00,17212000,RIO DO SANGUE,Setor Elétrico,Ativo
501,PCH BARUITO JUSANTE,17094010,1,17,00184 - GLOBAL - GLOBAL,00184 - GLOBAL - GLOBAL,CAMPO NOVO DO PARECIS-MT,-13.30140,-57.58810,327.00,17212000,RIO DO SANGUE,Setor Elétrico,Ativo
502,PCH INXU JUSANTE,17094050,1,17,00770 - INXU - Inxú Geradora e Comercializadora de Energia E...,00770 - INXU - Inxú Geradora e Comercializadora de Energia E...,NOVA MARINGÁ-MT,-13.20500,-57.50500,291.17,17212000,RIO DO SANGUE,Setor Elétrico,Ativo
503,BRASNORTE,17094300,1,17,00091 - SEMA-MT - SEMA-MT,00091 - SEMA-MT - SEMA-MT,BRASNORTE-MT,-12.09640,-57.88030,0.00,17212000,RIO DO SANGUE,RHN,Manutenção
504,PCH BOCAIÚVA MONTANTE,17094400,1,17,00463 - CRAVARI - SPE CRAVARI,00463 - CRAVARI - SPE CRAVARI,BRASNORTE-MT,-12.57330,-57.88310,314.00,17212400,RIO CRAVARI,Setor Elétrico,Ativo
505,PCH BOCAIÚVA BARRAMENTO,17094520,1,17,00463 - CRAVARI - SPE CRAVARI,00463 - CRAVARI - SPE CRAVARI,BRASNORTE-MT,-12.52940,-57.87830,311.00,17212400,RIO CRAVARI,Setor Elétrico,Ativo
506,PCH BOCAIÚVA JUSANTE,17094550,1,17,00463 - CRAVARI - SPE CRAVARI,00463 - CRAVARI - SPE CRAVARI,BRASNORTE-MT,-12.48220,-57.87440,275.00,17212400,RIO CRAVARI,Setor Elétrico,Ativo
507,FAZENDA CACHOEIRA GRANDE,17098500,1,17,00091 - SEMA-MT - SEMA-MT,00091 - SEMA-MT - SEMA-MT,NOVA MUTUM-MT,-14.21690,-56.03470,0.00,17220000,RIO ARINOS,RHN,Ativo
508,FAZENDA CACHOEIRA DE PAU,17099000,1,17,00108 - HYDROCONSULT - HYDROCONSULT,00091 - SEMA-MT - SEMA-MT,NOVA MUTUM-MT,-13.83190,-56.41250,0.00,17220000,RIO ARINOS,RHN,Manutenção
509,FAZENDA MASSAPÉ,17099500,1,17,00108 - HYDROCONSULT - HYDROCONSULT,00091 - SEMA-MT - SEMA-MT,SÃO JOSÉ DO RIO CLARO-MT,-13.50250,-56.61830,0.00,17224000,RIO CLARO,RHN,Ativo
510,JUARA,17122001,1,17,00091 - SEMA-MT - SEMA-MT,00091 - SEMA-MT - SEMA-MT,JUARA-MT,-10.82310,-57.72720,0.00,17227200,RIO DOS PEIXES,RHN,Ativo
511,PCH CANOA QUEBRADA MONTANTE 1,17228000,1,17,00778 - RVERDE-QUEBRADA - RVERDE-QUEBRADA,00778 - RVERDE-QUEBRADA - RVERDE-QUEBRADA,NOVA MUTUM-MT,-13.40170,-55.82690,382.00,17220700,RIBEIRÃO GRANDE,Setor Elétrico,Ativo
512,PCH CANOA QUEBRADA MONTANTE 2,17229000,1,17,00778 - RVERDE-QUEBRADA - RVERDE-QUEBRADA,00778 - RVERDE-QUEBRADA - RVERDE-QUEBRADA,LUCAS DO RIO VERDE-MT,-13.29860,-55.91220,383.00,17242130,RIBEIRÃO RANCHÃO,Setor Elétrico,Ativo
513,PCH CANOA QUEBRADA LUCAS DO RIO VERDE,17230000,1,17,00778 - RVERDE-QUEBRADA - RVERDE-QUEBRADA,00778 - RVERDE-QUEBRADA - RVERDE-QUEBRADA,LUCAS DO RIO VERDE-MT,-13.05190,-55.90500,377.00,17242100,RIO VERDE,Setor Elétrico,Ativo
514,PCH NOVA MUTUM MONTANTE,17240900,1,17,00637 - AGROENERGÉTICA - Agroenergética Mato Grosso Ltda,00637 - AGROENERGÉTICA - Agroenergética Mato Grosso Ltda,NOVA MUTUM-MT,-13.75830,-56.05360,395.00,17223400,RIO DOS PATOS,Setor Elétrico,Ativo
515,PCH NOVA MUTUM BARRRAMENTO,17250500,1,17,00637 - AGROENERGÉTICA - Agroenergética Mato Grosso Ltda,00637 - AGROENERGÉTICA - Agroenergética Mato Grosso Ltda,NOVA MUTUM-MT,-13.60360,-56.20060,340.00,17223400,RIO DOS PATOS,Setor Elétrico,Ativo
516,PCH NOVA MUTUM JUSANTE,17250550,1,17,00637 - AGROENERGÉTICA - Agroenergética Mato Grosso Ltda,00637 - AGROENERGÉTICA - Agroenergética Mato Grosso Ltda,NOVA MUTUM-MT,-13.59140,-56.21640,337.00,17223400,RIO DOS PATOS,Setor Elétrico,Ativo
517,PCH CANOA QUEBRADA BARRAMENTO,17260000,1,17,00778 - RVERDE-QUEBRADA - RVERDE-QUEBRADA,00778 - RVERDE-QUEBRADA - RVERDE-QUEBRADA,LUCAS DO RIO VERDE-MT,-12.79390,-56.00830,360.00,17242100,RIO VERDE,Setor Elétrico,Ativo
518,PCH CANOA QUEBRADA JUSANTE,17270000,1,17,00778 - RVERDE-QUEBRADA - RVERDE-QUEBRADA,00778 - RVERDE-QUEBRADA - RVERDE-QUEBRADA,LUCAS DO RIO VERDE-MT,-12.79330,-56.01080,336.00,17242100,RIO VERDE,Setor Elétrico,Ativo
519,SORRISO,17271100,1,17,00108 - HYDROCONSULT - HYDROCONSULT,00091 - SEMA-MT - SEMA-MT,SORRISO-MT,-12.53500,-55.70720,0.00,17241800,RIO DO LIRA,RHN,Ativo
520,UHE COLIDER PONTE MT-222,17273100,1,17,00028 - COPEL - COPEL,00028 - COPEL - COPEL,SINOP-MT,-11.89390,-55.65610,0.00,17240000,RIO TELES PIRES (OU SÃO MANUEL),Setor Elétrico,Ativo
521,UHE COLIDER PONTE MT-242,17275000,1,17,00028 - COPEL - COPEL,00028 - COPEL - COPEL,SORRISO-MT,-12.25890,-55.94940,0.00,17242100,RIO VERDE,Setor Elétrico,Ativo
522,UHE SINOP RIO VERDE,17275100,1,17,01017 - SINOP - Companhia Energética Sinop S.A.,01017 - SINOP - Companhia Energética Sinop S.A.,SINOP-MT,-12.17310,-55.89940,310.05,17242100,RIO VERDE,Setor Elétrico,Ativo
523,FAZENDA CERON,17277000,1,17,00108 - HYDROCONSULT - HYDROCONSULT,00091 - SEMA-MT - SEMA-MT,SORRISO-MT,-12.65000,-55.56830,0.00,17241900,RIO CELESTE,RHN,Ativo
524,UHE SINOP MONTANTE 1,17277300,1,17,01017 - SINOP - Companhia Energética Sinop S.A.,01017 - SINOP - Companhia Energética Sinop S.A.,SINOP-MT,-12.28810,-55.60080,309.36,17240000,RIO TELES PIRES (OU SÃO MANUEL),Setor Elétrico,Ativo
525,UHE SINOP MONTANTE 2,17277500,1,17,01017 - SINOP - Companhia Energética Sinop S.A.,01017 - SINOP - Companhia Energética Sinop S.A.,SINOP-MT,-13.14330,-55.66690,331.25,17240000,RIO TELES PIRES (OU SÃO MANUEL),Setor Elétrico,Ativo
526,UHE SINOP RESERVATÓRIO,17280940,1,17,01017 - SINOP - Companhia Energética Sinop S.A.,01017 - SINOP - Companhia Energética Sinop S.A.,SINOP-MT,-11.41470,-55.52330,279.58,17240000,RIO TELES PIRES (OU SÃO MANUEL),Setor Elétrico,Ativo
527,UHE SINOP BARRAMENTO,17280980,1,17,01017 - SINOP - Companhia Energética Sinop S.A.,01017 - SINOP - Companhia Energética Sinop S.A.,SINOP-MT,-11.27970,-55.44420,276.35,17240000,RIO TELES PIRES (OU SÃO MANUEL),Setor Elétrico,Ativo
528,UHE SINOP JUSANTE,17280990,1,17,01017 - SINOP - Companhia Energética Sinop S.A.,01017 - SINOP - Companhia Energética Sinop S.A.,SINOP-MT,-11.26530,-55.45110,274.49,17240000,RIO TELES PIRES (OU SÃO MANUEL),Setor Elétrico,Ativo
529,UHE COLIDER RESERVATÓRIO,17304000,1,17,00028 - COPEL - COPEL,00028 - COPEL - COPEL,NOVA CANAÃ DO NORTE-MT,-10.98220,-55.70030,272.00,17240000,RIO TELES PIRES (OU SÃO MANUEL),Setor Elétrico,Ativo
530,UHE COLÍDER BARRAMENTO,17305000,1,17,00028 - COPEL - COPEL,00028 - COPEL - COPEL,NOVA CANAÃ DO NORTE-MT,-10.97500,-55.76830,274.00,17240000,RIO TELES PIRES (OU SÃO MANUEL),Setor Elétrico,Ativo
