,NomeEstacao,Operadora,Responsavel,Municipio-UF,NomeRio,Origem,StatusEstacao,CodEstacao,Bacia,SubBacia,CodRio,Latitude,Longitude,Altitude
1,UHE BELO MONTE BR230,00594 - NORTE ENERGIA - NORTE ENERGIA,00594 - NORTE ENERGIA - NORTE ENERGIA,VITÓRIA DO XINGU-PA,None,Setor Elétrico,Ativo,00351004,1,18,0,-3.12670,-51.79060,33.00
2,UHE BELO MONTE SÍTIO PIMENTAL,00594 - NORTE ENERGIA - NORTE ENERGIA,00594 - NORTE ENERGIA - NORTE ENERGIA,VITÓRIA DO XINGU-PA,None,Setor Elétrico,Ativo,00351005,1,18,0,-3.37580,-51.94030,110.00
3,UHE BELO MONTE VISTA ALEGRE,00594 - NORTE ENERGIA - NORTE ENERGIA,00594 - NORTE ENERGIA - NORTE ENERGIA,ALTAMIRA-PA,None,Setor Elétrico,Ativo,00352009,1,18,0,-3.11860,-52.25250,125.00
4,UHE BELO MONTE SÃO FRANCISCO,00594 - NORTE ENERGIA - NORTE ENERGIA,00594 - NORTE ENERGIA - NORTE ENERGIA,ALTAMIRA-PA,None,Setor Elétrico,Ativo,00352010,1,18,0,-3.25330,-52.34890,124.00
5,UHE BELO MONTE JOARI,00594 - NORTE ENERGIA - NORTE ENERGIA,00594 - NORTE ENERGIA - NORTE ENERGIA,SÃO FÉLIX DO XINGÚ-PA,None,Setor Elétrico,Ativo,00652002,1,18,0,-6.56030,-52.07640,0.00
6,MÂNCIO LIMA,00380 - SEMA-AC - Secretaria de Meio Ambiente do Estado do Acre,00380 - SEMA-AC - Secretaria de Meio Ambiente do Estado do Acre,MÂNCIO LIMA-AC,None,RHN,Manutenção,00772006,1,12,0,-7.59360,-72.92610,216.00
7,SÃO LOURENÇO DA MATA II,00082 - CPRM - Cia de Pesquisa de Recursos Minerais,00001 - ANA - Agência Nacional de Águas ,SÃO LOURENÇO DA MATA-PE,None,RHN,Ativo,00835048,3,39,0,-7.99860,-35.03190,70.00
8,CARUARU,00082 - CPRM - Cia de Pesquisa de Recursos Minerais,00001 - ANA - Agência Nacional de Águas ,CARUARU-PE,None,RHN,Ativo,00835106,3,39,0,-8.30280,-36.01080,545.00
9,MORRINHOS,00082 - CPRM - Cia de Pesquisa de Recursos Minerais,00001 - ANA - Agência Nacional de Águas ,ALTO PARNAÍBA-MA,None,RHN,Ativo,00946005,3,34,0,-9.62470,-46.29030,356.00
10,SENA MADUREIRA,00380 - SEMA-AC - Secretaria de Meio Ambiente do Estado do Acre,00380 - SEMA-AC - Secretaria de Meio Ambiente do Estado do Acre,SENA MADUREIRA-AC,None,RHN,Ativo,00968006,1,13,0,-9.05860,-68.65920,190.00
11,SANTA ROSA,00380 - SEMA-AC - Secretaria de Meio Ambiente do Estado do Acre,00380 - SEMA-AC - Secretaria de Meio Ambiente do Estado do Acre,SANTA ROSA DO PURUS-AC,None,RHN,Ativo,00970003,1,13,0,-9.43860,-70.49220,219.00
12,JORDÃO,00380 - SEMA-AC - Secretaria de Meio Ambiente do Estado do Acre,00380 - SEMA-AC - Secretaria de Meio Ambiente do Estado do Acre,JORDÃO-AC,None,RHN,Ativo,00971002,1,12,0,-9.19389,-71.94917,239.00
13,UHE ESTREITO RIO PONTE ALTA,00791 - CONS.CESTE - CONS.CESTE,00791 - CONS.CESTE - CONS.CESTE,PONTE ALTA DO TOCANTINS-TO,None,Setor Elétrico,Ativo,01047009,2,22,0,-10.74610,-47.53720,316.00
14,UHE COLIDER METEOROLÓGICA,00028 - COPEL - COPEL,00028 - COPEL - COPEL,COLIDER-MT,None,Setor Elétrico,Ativo,01055005,1,17,0,-10.95470,-55.77810,0.00
15,PCH ÂNGELO CASSOL MONTANTE,00768 - ÂNGELO CASSOL - ÂNGELO CASSOL,00768 - ÂNGELO CASSOL - ÂNGELO CASSOL,ALTA FLORESTA D''OESTE-RO,None,Setor Elétrico,Ativo,01162007,1,15,0,-11.92920,-62.08780,292.00
16,PCH MONTE BELO MONTANTE,00307 - ELETROSSOL - ELETROSSOL,00307 - ELETROSSOL - ELETROSSOL,ALTA FLORESTA D''OESTE-RO,None,Setor Elétrico,Ativo,01162008,1,15,0,-11.95560,-62.17940,316.00
17,PCH SALDANHA PLU,01109 - HIDROLUZ - Hidroluz Centrais Elétricas Ltda.,01109 - HIDROLUZ - Hidroluz Centrais Elétricas Ltda.,ALTA FLORESTA D''OESTE-RO,None,Setor Elétrico,Ativo,01162011,1,15,0,-11.95860,-62.18390,310.00
18,PCH CABIXI MONTANTE,00686 - CASSOL - CASSOL,00686 - CASSOL - CASSOL,VILHENA-RO,None,Setor Elétrico,Ativo,01260008,1,15,0,-12.89920,-60.10830,612.00
19,PCH CASCATA CHUPINGUAIA PLU,00561 - CHUPINGUAIA - CHUPINGUAIA,00561 - CHUPINGUAIA - CHUPINGUAIA,CHUPINGUAIA-RO,None,Setor Elétrico,Ativo,01260012,1,15,0,-12.85420,-60.85060,267.00
20,"PCH SANTA LUZIA D""""OESTE PLU",00559 - BERGAMIN - BERGAMIN,00559 - BERGAMIN - BERGAMIN,ALTO ALEGRE DOS PARECIS-RO,None,Setor Elétrico,Ativo,01261002,1,15,0,-12.34330,-61.76920,356.00
21,UHE MANSO MET,00809 - CONS.MANSO - CONS.MANSO,00809 - CONS.MANSO - CONS.MANSO,CHAPADA DOS GUIMARÃES-MT,None,Setor Elétrico,Ativo,01455013,6,66,0,-14.86140,-55.78940,344.00
22,PCH MACHADO MINEIRO PASSAGEM DAS ÉGUAS,00239 - HORIZONTES - Horizontes Energia S.A.,00239 - HORIZONTES - Horizontes Energia S.A.,RIO DO PRADO-MG,None,Setor Elétrico,Ativo,01542030,5,53,0,-15.60920,-42.54170,0.00
23,ANA SEDE,00001 - ANA - Agência Nacional de Águas ,00001 - ANA - Agência Nacional de Águas ,BRASÍLIA-DF,None,GDH,Ativo,01547032,6,60,0,-15.81810,-47.94500,1150.00
24,ANA SEDE (COTA ONLINE),00001 - ANA - Agência Nacional de Águas ,00001 - ANA - Agência Nacional de Águas ,BRASÍLIA-DF,None,CotaOnline,Manutenção,01547032,6,60,0,-15.81805,-47.94500,1150.00
25,ANA SEDE - TELEMÉTRICA,00001 - ANA - Agência Nacional de Águas ,00001 - ANA - Agência Nacional de Águas ,BRASÍLIA-DF,None,RHN,Ativo,01547079,6,60,0,-15.81810,-47.94500,1150.00
26,UHE SERRA DA MESA BARRO ALTO,00069 - FURNAS - Furnas Centrais Elétricas S.A.,00069 - FURNAS - Furnas Centrais Elétricas S.A.,BARRO ALTO-GO,None,Setor Elétrico,Ativo,01548050,2,20,0,-15.11750,-48.92420,584.00
27,UHE BATALHA CRISTALINA,00069 - FURNAS - Furnas Centrais Elétricas S.A.,00069 - FURNAS - Furnas Centrais Elétricas S.A.,CRISTALINA-GO,None,Setor Elétrico,Ativo,01647002,6,60,0,-16.78810,-47.60330,1173.00
28,UHE BATALHA FAZENDA BURITI,00069 - FURNAS - Furnas Centrais Elétricas S.A.,00069 - FURNAS - Furnas Centrais Elétricas S.A.,CRISTALINA-GO,None,Setor Elétrico,Ativo,01647023,6,60,0,-16.96830,-47.34190,881.00
29,"UHE BATALHA SÍTIO OLHO D"""" ÁGUA",00069 - FURNAS - Furnas Centrais Elétricas S.A.,00069 - FURNAS - Furnas Centrais Elétricas S.A.,UNAÍ-MG,None,Setor Elétrico,Ativo,01647024,6,60,0,-16.38920,-47.15080,974.00
30,UHE SERRA DO FACÃO CLIMATOLÓGICA,00334 - SERRA DO FACÃO - SERRA DO FACÃO,00334 - SERRA DO FACÃO - SERRA DO FACÃO,CATALÃO-GO,None,Setor Elétrico,Ativo,01747012,6,60,0,-17.87720,-47.70140,0.00
31,UHE ITUMBIARA PIRACANJUBA,00069 - FURNAS - Furnas Centrais Elétricas S.A.,00069 - FURNAS - Furnas Centrais Elétricas S.A.,PIRACANJUBA-GO,None,Setor Elétrico,Ativo,01749015,6,60,0,-17.31060,-49.02190,730.00
32,PCH TRONQUEIRAS SE GOVERNADOR VALADARES,01061 - CEMIG LESTE - CEMIG  Geração Leste S.A.,01061 - CEMIG LESTE - CEMIG  Geração Leste S.A.,GOVERNADOR VALADARES-MG,None,Setor Elétrico,Ativo,01841029,5,56,0,-18.85500,-41.96000,0.00
33,UHE ITUMBIARA TUPACIGUARA,00069 - FURNAS - Furnas Centrais Elétricas S.A.,00069 - FURNAS - Furnas Centrais Elétricas S.A.,TUPACIGUARA-MG,None,Setor Elétrico,Ativo,01848055,6,60,0,-18.62170,-48.68470,917.00
34,UHE ITUMBIARA ÁGUA LIMPA,00069 - FURNAS - Furnas Centrais Elétricas S.A.,00069 - FURNAS - Furnas Centrais Elétricas S.A.,ÁGUA LIMPA-GO,None,Setor Elétrico,Ativo,01848059,6,60,0,-18.07470,-48.75640,711.00
35,UHE ITUMBIARA FAZENDA ROSAS,00069 - FURNAS - Furnas Centrais Elétricas S.A.,00069 - FURNAS - Furnas Centrais Elétricas S.A.,ANHANGUERA-GO,None,Setor Elétrico,Ativo,01848060,6,60,0,-18.32330,-48.22640,0.00
36,CGH SANTA LUZIA SE ITUIUTABA,00023 - CEMIG - CEMIG,00023 - CEMIG - CEMIG,ITUIUTABA-MG,None,Setor Elétrico,Ativo,01849035,6,60,0,-18.96360,-49.44830,0.00
37,UHE SÁ CARVALHO SE MESQUITA,00624 - SÁ CARVALHO - SÁ CARVALHO,00624 - SÁ CARVALHO - SÁ CARVALHO,MESQUITA-MG,None,Setor Elétrico,Ativo,01942033,5,56,0,-19.41690,-42.54920,0.00
38,UHE SÁ CARVALHO JUSANTE,00624 - SÁ CARVALHO - SÁ CARVALHO,00624 - SÁ CARVALHO - SÁ CARVALHO,ANTÔNIO DIAS-MG,None,Setor Elétrico,Ativo,01942049,5,56,0,-19.63470,-42.80610,0.00
39,CGH SANTA LUZIA SE SERRA DO SALITRE,00023 - CEMIG - CEMIG,00023 - CEMIG - CEMIG,SERRA DO SALITRE-MG,None,Setor Elétrico,Ativo,01946024,6,60,0,-19.11830,-46.68170,0.00
40,PCH MARTINS SE UBERABA,01071 - CEMIG OESTE - CEMIG Geração Oeste S.A.,01071 - CEMIG OESTE - CEMIG Geração Oeste S.A.,UBERABA-MG,None,Setor Elétrico,Ativo,01947032,6,61,0,-19.71970,-47.91420,0.00
41,ROSÁRIO DA LIMEIRA,00101 - IGAM-MG - Instituto Mineiro de Gestão das Águas,00101 - IGAM-MG - Instituto Mineiro de Gestão das Águas,ROSÁRIO DA LIMEIRA-MG,None,RHN,Ativo,02042051,5,58,0,-20.97888,-42.50944,0.00
42,CONSELHEIRO LAFAIETE,00082 - CPRM - Cia de Pesquisa de Recursos Minerais,00001 - ANA - Agência Nacional de Águas ,CONSELHEIRO LAFAIETE-MG,None,RHN,Ativo,02043005,4,40,0,-20.62500,-43.75360,996.00
43,UHE PETI SÃO GONÇALO DO RIO ACIMA,01061 - CEMIG LESTE - CEMIG  Geração Leste S.A.,01061 - CEMIG LESTE - CEMIG  Geração Leste S.A.,BARÃO DE COCAIS-MG,None,Setor Elétrico,Ativo,02043063,5,56,0,-20.02530,-43.53920,0.00
44,UHE CAJURU FAZENDA CAMPO GRANDE,01071 - CEMIG OESTE - CEMIG Geração Oeste S.A.,01071 - CEMIG OESTE - CEMIG Geração Oeste S.A.,PASSA TEMPO-MG,None,Setor Elétrico,Ativo,02044063,4,40,0,-20.62610,-44.43780,0.00
45,LAGOA DOURADA,00101 - IGAM-MG - Instituto Mineiro de Gestão das Águas,00101 - IGAM-MG - Instituto Mineiro de Gestão das Águas,LAGOA DOURADA-MG,RIO ACRE,RHN,Ativo,02044079,4,40,13330000,-20.91027,-44.07750,0.00
46,CGH ANIL SE PIMENTA,00023 - CEMIG - CEMIG,00023 - CEMIG - CEMIG,PIMENTA-MG,None,Setor Elétrico,Ativo,02045031,6,61,0,-20.46830,-45.79310,0.00
47,UHE MARECHAL MASCARENHAS DE MORAES ITAÚ DE MINAS,00069 - FURNAS - Furnas Centrais Elétricas S.A.,00069 - FURNAS - Furnas Centrais Elétricas S.A.,ITAÚ DE MINAS-MG,None,Setor Elétrico,Ativo,02046031,6,61,0,-20.74890,-46.74360,0.00
48,UHE LUIZ CARLOS BARRETO DE CARVALHO MET,00069 - FURNAS - Furnas Centrais Elétricas S.A.,00069 - FURNAS - Furnas Centrais Elétricas S.A.,PEDREGULHO-SP,None,Setor Elétrico,Ativo,02047115,6,61,0,-20.15830,-47.27810,725.00
49,UHE PORTO COLÔMBIA PLU,00069 - FURNAS - Furnas Centrais Elétricas S.A.,00069 - FURNAS - Furnas Centrais Elétricas S.A.,PLANURA-MG,None,Setor Elétrico,Ativo,02048096,6,61,0,-20.11920,-48.57310,0.00
50,UHE MARIMBONDO MET,00069 - FURNAS - Furnas Centrais Elétricas S.A.,00069 - FURNAS - Furnas Centrais Elétricas S.A.,FRONTEIRA-MG,None,Setor Elétrico,Ativo,02049070,6,61,0,-20.29250,-49.19670,454.00
51,SÃO SEBASTIÃO DA VARGEM ALEGRE,00101 - IGAM-MG - Instituto Mineiro de Gestão das Águas,00101 - IGAM-MG - Instituto Mineiro de Gestão das Águas,SÃO SEBASTIÃO DA VARGEM ALEGRE-MG,None,RHN,Ativo,02142096,5,58,0,-21.07250,-42.63694,0.00
52,MIRAI,00101 - IGAM-MG - Instituto Mineiro de Gestão das Águas,00101 - IGAM-MG - Instituto Mineiro de Gestão das Águas,MIRAÍ-MG,None,RHN,Ativo,02142097,5,58,0,-21.19472,-42.61583,0.00
53,ITAOCARA,00082 - CPRM - Cia de Pesquisa de Recursos Minerais,00001 - ANA - Agência Nacional de Águas ,ITAOCARA-RJ,None,RHN,Ativo,02142158,5,58,0,-21.66580,-42.08110,65.00
54,PCH MARMELOS SE JUIZ DE FORA,01060 - CEMIG SUL - CEMIG Geração Sul S.A.,01060 - CEMIG SUL - CEMIG Geração Sul S.A.,JUIZ DE FORA-MG,None,Setor Elétrico,Ativo,02143064,5,58,0,-21.71140,-43.40310,0.00
55,"PCH MARMELOS CHAPÉU D""""UVAS",01060 - CEMIG SUL - CEMIG Geração Sul S.A.,01060 - CEMIG SUL - CEMIG Geração Sul S.A.,JUIZ DE FORA-MG,None,Setor Elétrico,Ativo,02143162,5,58,0,-21.58530,-43.52720,746.00
56,UHE LUIZ CARLOS BARRETO DE CARVALHO BOA ESPERANÇA,00069 - FURNAS - Furnas Centrais Elétricas S.A.,00069 - FURNAS - Furnas Centrais Elétricas S.A.,BOA ESPERANÇA-MG,None,Setor Elétrico,Ativo,02145048,6,61,0,-21.08780,-45.56860,772.00
57,PCH WALTER ROSSI (ANTAS II)  BARRAGEM DO CIPÓ,00232 - DMEPC - DMEPC,00232 - DMEPC - DMEPC,POÇOS DE CALDAS-MG,None,Setor Elétrico,Ativo,02146112,6,61,0,-21.85280,-46.60940,1268.00
58,FAZENDA DAS FLORES,00010 - DAEE-SP - Departamento de Águas e Energia Elétrica do E...,00010 - DAEE-SP - Departamento de Águas e Energia Elétrica do E...,CRAVINHOS-SP,None,RHN,Ativo,02147012,6,61,0,-21.33330,-47.78330,720.00
59,FAZENDA RESFRIADO,00010 - DAEE-SP - Departamento de Águas e Energia Elétrica do E...,00010 - DAEE-SP - Departamento de Águas e Energia Elétrica do E...,RIBEIRÃO PRETO-SP,None,RHN,Ativo,02147013,6,61,0,-21.30000,-47.93330,590.00
60,CRAVINHOS,00010 - DAEE-SP - Departamento de Águas e Energia Elétrica do E...,00010 - DAEE-SP - Departamento de Águas e Energia Elétrica do E...,CRAVINHOS-SP,None,RHN,Ativo,02147014,6,61,0,-21.36670,-47.71670,700.00
61,UHE IBITINGA ARARAQUARA,00143 - AES TIETÊ - AES Tietê Energia S.A.,00143 - AES TIETÊ - AES Tietê Energia S.A.,ARARAQUARA-SP,None,Setor Elétrico,Ativo,02148171,6,62,0,-21.77190,-48.25470,658.00
62,UHE PROMISSÃO LINS,00143 - AES TIETÊ - AES Tietê Energia S.A.,00143 - AES TIETÊ - AES Tietê Energia S.A.,LINS-SP,None,Setor Elétrico,Ativo,02149097,6,62,0,-21.71390,-49.72030,542.00
63,UHE NOVA AVANHANDAVA COROADOS,00143 - AES TIETÊ - AES Tietê Energia S.A.,00143 - AES TIETÊ - AES Tietê Energia S.A.,COROADOS-SP,None,Setor Elétrico,Ativo,02150091,6,62,0,-21.40420,-50.26580,427.00
64,UHE SIMPLÍCIO FAZENDA SANTA MÔNICA,00069 - FURNAS - Furnas Centrais Elétricas S.A.,00069 - FURNAS - Furnas Centrais Elétricas S.A.,VALENÇA-RJ,None,Setor Elétrico,Ativo,02243507,5,58,0,-22.36080,-43.69780,0.00
65,UHE SIMPLÍCIO METEOROLÓGICA,00069 - FURNAS - Furnas Centrais Elétricas S.A.,00069 - FURNAS - Furnas Centrais Elétricas S.A.,SAPUCAIA-RJ,None,Setor Elétrico,Ativo,02243508,5,58,0,-22.03890,-43.00060,414.00
66,UEL VIGÁRIO PASSO TRÊS,00008 - LIGHT - Light Energia S.A,00008 - LIGHT - Light Energia S.A,RIO CLARO-RJ,None,Setor Elétrico,Ativo,02244107,5,58,0,-22.69250,-44.00690,450.00
67,UHE FUNIL RESENDE AEROPORTO,00069 - FURNAS - Furnas Centrais Elétricas S.A.,00069 - FURNAS - Furnas Centrais Elétricas S.A.,RESENDE-RJ,None,Setor Elétrico,Ativo,02244161,5,58,0,-22.47560,-44.47360,0.00
68,UHE FUNIL GUARATINGUETÁ,00069 - FURNAS - Furnas Centrais Elétricas S.A.,00069 - FURNAS - Furnas Centrais Elétricas S.A.,GUARATINGUETÁ-SP,None,Setor Elétrico,Ativo,02245032,5,58,0,-22.80890,-45.20080,558.00
69,UHE IBITINGA ITAQUERI DA SERRA,00143 - AES TIETÊ - AES Tietê Energia S.A.,00143 - AES TIETÊ - AES Tietê Energia S.A.,ITIRAPINA-SP,None,Setor Elétrico,Ativo,02247201,6,62,0,-22.31500,-47.91720,967.00
70,UHE PROMISSÃO NOVO HORIZONTE,00143 - AES TIETÊ - AES Tietê Energia S.A.,00143 - AES TIETÊ - AES Tietê Energia S.A.,NOVO HORIZONTE-SP,None,Setor Elétrico,Ativo,02249112,6,62,0,-21.42250,-49.08750,500.00
71,UHE SALTO GRANDE FAZENDA SÃO PAULO,00131 - PARANAPANEMA - Rio Paranapanema Energia S.A,00131 - PARANAPANEMA - Rio Paranapanema Energia S.A,ÁGUAS DE SANTA BARBARA-SP,None,Setor Elétrico,Ativo,02249113,6,64,0,-22.76190,-49.24310,643.00
72,UHE CANOAS I CÂNDIDO MOTTA,00800 - CONS.CANOAS - CONS.CANOAS,00800 - CONS.CANOAS - CONS.CANOAS,PLATINA-SP,None,Setor Elétrico,Ativo,02250097,6,64,0,-22.75330,-50.46940,437.00
73,UHE CANOAS I PLATINA,00800 - CONS.CANOAS - CONS.CANOAS,00800 - CONS.CANOAS - CONS.CANOAS,PLATINA-SP,None,Setor Elétrico,Ativo,02250098,6,64,0,-22.60810,-50.18080,472.00
74,UHE CANOAS II IBIRAREMA,00800 - CONS.CANOAS - CONS.CANOAS,00800 - CONS.CANOAS - CONS.CANOAS,IBIRAREMA-SP,None,Setor Elétrico,Ativo,02250099,6,64,0,-22.86640,-50.09360,432.00
75,UHE CANOAS II PALMITAL,00800 - CONS.CANOAS - CONS.CANOAS,00800 - CONS.CANOAS - CONS.CANOAS,PALMITAL-SP,None,Setor Elétrico,Ativo,02250100,6,64,0,-22.72220,-50.13580,530.00
76,UHE TAQUARUÇU ANHUMAS,00131 - PARANAPANEMA - Rio Paranapanema Energia S.A,00131 - PARANAPANEMA - Rio Paranapanema Energia S.A,ANHUMAS-SP,None,Setor Elétrico,Ativo,02251080,6,64,0,-22.29170,-51.42420,451.00
77,UHE TAQUARUÇU CENTENÁRIO DO SUL,00131 - PARANAPANEMA - Rio Paranapanema Energia S.A,00131 - PARANAPANEMA - Rio Paranapanema Energia S.A,CENTENÁRIO DO SUL-PR,None,Setor Elétrico,Ativo,02251081,6,64,0,-22.83170,-51.60280,514.00
78,PCH PORTO GÓES BOM JARDIM,00084 - EMAE - EMAE,00084 - EMAE - EMAE,JUNDIAÍ-SP,None,Setor Elétrico,Ativo,02346469,6,62,0,-23.15250,-46.99000,732.55
79,UHE JURUMIRIM BREJAUVA,00131 - PARANAPANEMA - Rio Paranapanema Energia S.A,00131 - PARANAPANEMA - Rio Paranapanema Energia S.A,SÃO MIGUEL ARCANJO-SP,None,Setor Elétrico,Ativo,02347192,6,64,0,-23.78560,-47.63560,745.00
80,UHE CANOAS I BAIRRO MORRO CAVADO,00800 - CONS.CANOAS - CONS.CANOAS,00800 - CONS.CANOAS - CONS.CANOAS,BURI-SP,None,Setor Elétrico,Ativo,02348090,6,64,0,-23.71220,-48.70420,666.00
81,UHE CANOAS II FAZENDA TRÊS LAGOAS,00800 - CONS.CANOAS - CONS.CANOAS,00800 - CONS.CANOAS - CONS.CANOAS,ANGATUBA-SP,None,Setor Elétrico,Ativo,02348092,6,64,0,-23.42830,-48.44000,712.00
82,UHE CHAVANTES FAZENDA SÃO JOÃO,00131 - PARANAPANEMA - Rio Paranapanema Energia S.A,00131 - PARANAPANEMA - Rio Paranapanema Energia S.A,RIVERSUL-SP,None,Setor Elétrico,Ativo,02349076,6,64,0,-23.85170,-49.39500,659.80
83,PCH APUCARANINHA MONTANTE 2,00028 - COPEL - COPEL,00028 - COPEL - COPEL,APUCARANA-PR,None,Setor Elétrico,Ativo,02351080,6,64,0,-23.51750,-51.53030,0.00
84,UHE CANOAS I BAIRRO CACHIMBA,00800 - CONS.CANOAS - CONS.CANOAS,00800 - CONS.CANOAS - CONS.CANOAS,APIAÍ-SP,None,Setor Elétrico,Ativo,02448071,6,64,0,-24.48310,-48.77690,880.00
85,UHE CANOAS I BAIRRO CANTAGALO,00800 - CONS.CANOAS - CONS.CANOAS,00800 - CONS.CANOAS - CONS.CANOAS,ITAPEVA-SP,None,Setor Elétrico,Ativo,02448072,6,64,0,-24.09360,-48.63890,950.00
86,UHE CANOAS II CAPÃO LIMPO,00800 - CONS.CANOAS - CONS.CANOAS,00800 - CONS.CANOAS - CONS.CANOAS,CAPÃO BONITO-SP,None,Setor Elétrico,Ativo,02448073,6,64,0,-24.07140,-48.18250,635.00
87,SENGES,00052 - IAT-PR - Instituto Água e Terra do Paraná,00052 - IAT-PR - Instituto Água e Terra do Paraná,SENGES-PR,None,RHN,Manutenção,02449044,6,64,0,-24.10000,-49.46670,650.00
88,UHE CHAVANTES BERTANHOLI,00131 - PARANAPANEMA - Rio Paranapanema Energia S.A,00131 - PARANAPANEMA - Rio Paranapanema Energia S.A,ITARARÉ-SP,None,Setor Elétrico,Ativo,02449067,6,64,0,-24.09030,-49.32920,725.00
89,BOM JARDIM MONTANTE,00052 - IAT-PR - Instituto Água e Terra do Paraná,00052 - IAT-PR - Instituto Água e Terra do Paraná,TIBAGI-PR,None,RHN,Ativo,02450009,6,64,0,-24.67780,-50.48440,750.00
90,UHE ITAIPU MANOEL RIBAS,00090 - ITAIPU - ITAIPU,00090 - ITAIPU - ITAIPU,MANOEL RIBAS-PR,None,Setor Elétrico,Ativo,02451057,6,64,0,-24.51330,-51.66500,878.00
91,UHE ITAIPU SANTA MARIA,00090 - ITAIPU - ITAIPU,00090 - ITAIPU - ITAIPU,SANTA MARIA DO OESTE-PR,None,Setor Elétrico,Ativo,02451059,6,64,0,-24.93330,-51.88330,550.00
92,UHE ITAIPU UBIRATÃ,00090 - ITAIPU - ITAIPU,00090 - ITAIPU - ITAIPU,UBIRATÃ-PR,None,Setor Elétrico,Ativo,02452062,6,64,0,-24.55330,-52.98580,530.00
93,CGH MARUMBI GUARATUBA,00028 - COPEL - COPEL,00028 - COPEL - COPEL,GUARATUBA-PR,None,Setor Elétrico,Ativo,02548079,8,82,0,-25.84530,-48.58030,0.00
94,CGH MARUMBI ANTONINA,00028 - COPEL - COPEL,00028 - COPEL - COPEL,ANTONINA-PR,None,Setor Elétrico,Ativo,02548098,8,82,0,-25.24330,-48.75220,0.00
95,UHE SALTO SANTIAGO GUARAPUAVA,00112 - ENGIE - Engie Brasil Energia S.A.,00112 - ENGIE - Engie Brasil Energia S.A.,GUARAPUAVA-PR,None,Setor Elétrico,Ativo,02551015,6,65,0,-25.36560,-51.49560,1051.00
96,UHE SALTO SANTIAGO GOIOXIM,00112 - ENGIE - Engie Brasil Energia S.A.,00112 - ENGIE - Engie Brasil Energia S.A.,GUARAPUAVA-PR,None,Setor Elétrico,Ativo,02551063,6,65,0,-25.24060,-51.92750,917.00
97,UHE SALTO OSÓRIO PINHÃO,00112 - ENGIE - Engie Brasil Energia S.A.,00112 - ENGIE - Engie Brasil Energia S.A.,PINHÃO-PR,None,Setor Elétrico,Ativo,02551069,6,65,0,-25.66170,-51.66220,1070.00
98,UHE FUNDÃO GUARAPUAVA,00289 - ELEJOR - ELEJOR,00289 - ELEJOR - ELEJOR,GUARAPUAVA-PR,None,Setor Elétrico,Ativo,02551070,6,65,0,-25.38470,-51.49390,0.00
99,UHE FUNDÃO PINHÃO,00289 - ELEJOR - ELEJOR,00289 - ELEJOR - ELEJOR,PINHÃO-PR,None,Setor Elétrico,Ativo,02551071,6,65,0,-25.64920,-51.96250,0.00
100,UHE SANTA CLARA ENTRE RIOS,00289 - ELEJOR - ELEJOR,00289 - ELEJOR - ELEJOR,GUARAPUAVA-PR,None,Setor Elétrico,Ativo,02551072,6,65,0,-25.54580,-51.48830,0.00
101,UHE SALTO OSÓRIO LARANJEIRAS DO SUL,00112 - ENGIE - Engie Brasil Energia S.A.,00112 - ENGIE - Engie Brasil Energia S.A.,LARANJEIRAS DO SUL-PR,None,Setor Elétrico,Ativo,02552009,6,65,0,-25.39780,-52.43500,810.00
102,UHE SALTO SANTIAGO CHOPINZINHO PLU,00112 - ENGIE - Engie Brasil Energia S.A.,00112 - ENGIE - Engie Brasil Energia S.A.,CHOPINZINHO-PR,None,Setor Elétrico,Ativo,02552030,6,65,0,-25.86000,-52.52690,738.00
103,UHE SALTO SANTIAGO FOZ DO JORDÃO,00112 - ENGIE - Engie Brasil Energia S.A.,00112 - ENGIE - Engie Brasil Energia S.A.,FOZ DO JORDÃO-PR,None,Setor Elétrico,Ativo,02552055,6,65,0,-25.77470,-52.11390,615.00
104,UHE ITÁ CAÇADOR PLU,00804 - CONS.ITÁ - CONS.ITÁ,00804 - CONS.ITÁ - CONS.ITÁ,CAÇADOR-SC,None,Setor Elétrico,Ativo,02650035,7,72,0,-26.81920,-50.98560,960.00
105,COOPERATIVA TRITÍCOLA SANANDUVA,00266 - SEMA-RS - SEMA-RS,00266 - SEMA-RS - SEMA-RS,SANANDUVA-RS,None,RHN,Ativo,02751063,7,72,0,-27.95890,-51.79560,0.00
106,PARQUE DE EVENTOS PINHAL DA SERRA,00266 - SEMA-RS - SEMA-RS,00266 - SEMA-RS - SEMA-RS,PINHAL DA SERRA-RS,None,RHN,Ativo,02751066,7,70,0,-27.87920,-51.17690,0.00
107,UHE FOZ DO CHAPECÓ NONOAI,00442 - FOZ DO CHAPECÓ - FOZ DO CHAPECÓ,00442 - FOZ DO CHAPECÓ - FOZ DO CHAPECÓ,NONOAI-RS,None,Setor Elétrico,Ativo,02752032,7,73,0,-27.33250,-52.78720,594.00
108,UHE ITÁ ERECHIM PLU,00804 - CONS.ITÁ - CONS.ITÁ,00804 - CONS.ITÁ - CONS.ITÁ,ERECHIM-RS,None,Setor Elétrico,Ativo,02752035,7,73,0,-27.65750,-52.32030,767.00
109,COOPAC CONSTANTINA,00266 - SEMA-RS - SEMA-RS,00266 - SEMA-RS - SEMA-RS,CONSTANTINA-RS,None,RHN,Ativo,02752060,7,74,0,-27.72530,-52.97810,0.00
110,AGROP. PAPAGAIO CHARÕA SARANDI,00266 - SEMA-RS - SEMA-RS,00266 - SEMA-RS - SEMA-RS,SARANDI-RS,None,RHN,Ativo,02752061,7,74,0,-27.92530,-52.82000,0.00
111,PREFEITURA BARRA DO RIO AZUL,00266 - SEMA-RS - SEMA-RS,00266 - SEMA-RS - SEMA-RS,BARRA DO RIO AZUL-RS,None,RHN,Ativo,02752062,7,73,0,-27.41000,-52.41560,0.00
112,UHE FOZ DO CHAPECÓ CAIBI,00442 - FOZ DO CHAPECÓ - FOZ DO CHAPECÓ,00442 - FOZ DO CHAPECÓ - FOZ DO CHAPECÓ,CAIBI-SC,None,Setor Elétrico,Ativo,02753029,7,74,0,-27.07470,-53.23920,369.00
113,PREFEITURA CERRO GRANDE,00266 - SEMA-RS - SEMA-RS,00266 - SEMA-RS - SEMA-RS,CERRO GRANDE-RS,None,RHN,Ativo,02753053,7,74,0,-27.61030,-53.16670,0.00
114,POUSADA APARADOS DA SERRA S.J. AUSENTES,00266 - SEMA-RS - SEMA-RS,00266 - SEMA-RS - SEMA-RS,SÃO JOSÉ DOS AUSENTES-RS,None,RHN,Ativo,02849066,7,70,0,-28.60640,-49.82060,0.00
115,BRIGADA MILITAR BOM JESUS,00266 - SEMA-RS - SEMA-RS,00266 - SEMA-RS - SEMA-RS,BOM JESUS-RS,None,RHN,Ativo,02850048,8,86,0,-28.67170,-50.43360,0.00
116,UHE MACHADINHO LAGOA VERMELHA,00808 - CONS.MACHADINHO - CONS.MACHADINHO,00808 - CONS.MACHADINHO - CONS.MACHADINHO,LAGOA VERMELHA-RS,None,Setor Elétrico,Ativo,02851061,7,72,0,-28.22220,-51.51250,805.00
117,SERAFINA CORRÊA,00082 - CPRM - Cia de Pesquisa de Recursos Minerais,00001 - ANA - Agência Nacional de Águas ,SERAFINA CORRÊA-RS,None,RHN,Ativo,02851073,8,86,0,-28.70810,-51.94610,535.00
118,PARQUE DE RODEIOS ESMERALDA,00266 - SEMA-RS - SEMA-RS,00266 - SEMA-RS - SEMA-RS,ESMERALDA-RS,None,RHN,Ativo,02851079,7,70,0,-28.06530,-51.17000,0.00
119,AULER,00082 - CPRM - Cia de Pesquisa de Recursos Minerais,00001 - ANA - Agência Nacional de Águas ,SOLEDADE-RS,None,RHN,Ativo,02852004,8,86,0,-28.80390,-52.38170,700.00
120,UHE PASSO FUNDO PLU,00112 - ENGIE - Engie Brasil Energia S.A.,00112 - ENGIE - Engie Brasil Energia S.A.,PASSO FUNDO-RS,None,Setor Elétrico,Ativo,02852057,7,73,0,-28.22670,-52.40330,684.00
121,AEROCLUBE CARAZINHO,00266 - SEMA-RS - SEMA-RS,00266 - SEMA-RS - SEMA-RS,CARAZINHO-RS,None,RHN,Ativo,02852074,8,85,0,-28.32250,-52.81640,0.00
122,POLO UAB TAPEJARA,00266 - SEMA-RS - SEMA-RS,00266 - SEMA-RS - SEMA-RS,TAPEJARA-RS,None,RHN,Ativo,02852075,7,72,0,-28.08920,-52.00610,0.00
123,INSTITUTO FEDERAL PANAMBI,00266 - SEMA-RS - SEMA-RS,00266 - SEMA-RS - SEMA-RS,PANAMBI-RS,None,RHN,Ativo,02853052,7,75,0,-28.28170,-53.51580,0.00
124,FAZENDA ROOS SANTA BÁRBARA DO SUL,00266 - SEMA-RS - SEMA-RS,00266 - SEMA-RS - SEMA-RS,SANTA BARBARA DO SUL-RS,None,RHN,Ativo,02853053,8,85,0,-28.18330,-53.22420,0.00
125,ESCOLA CAPÃO DO CIPÓ,00266 - SEMA-RS - SEMA-RS,00266 - SEMA-RS - SEMA-RS,CAPÃO DO CIPÓ-RS,None,RHN,Ativo,02854031,7,75,0,-28.94170,-54.55780,0.00
126,COOPATRIGO BOSSOROCA,00266 - SEMA-RS - SEMA-RS,00266 - SEMA-RS - SEMA-RS,BOSSOROCA-RS,None,RHN,Ativo,02854032,7,75,0,-28.73250,-54.91170,0.00
127,SANTA TECLA TUPANCIRETÃ,00266 - SEMA-RS - SEMA-RS,00266 - SEMA-RS - SEMA-RS,TUPANCIRETA-RS,None,RHN,Ativo,02854036,7,75,0,-28.90030,-54.15890,0.00
128,CRAS GARRUCHOS,00266 - SEMA-RS - SEMA-RS,00266 - SEMA-RS - SEMA-RS,GARIBALDI-RS,None,RHN,Ativo,02855017,7,75,0,-28.19250,-55.63780,0.00
129,BRIGADA MILITAR STO. ANTÔNIO MISSÕES,00266 - SEMA-RS - SEMA-RS,00266 - SEMA-RS - SEMA-RS,SANTO ANTÔNIO DAS MISSÕES-RS,None,RHN,Ativo,02855018,7,75,0,-28.51280,-55.22860,0.00
130,AEROPORTO TORRES,00266 - SEMA-RS - SEMA-RS,00266 - SEMA-RS - SEMA-RS,TORRES-RS,None,RHN,Ativo,02949025,8,87,0,-29.41420,-49.80470,0.00
131,PREFEITURA MORRINHOS DO SUL,00266 - SEMA-RS - SEMA-RS,00266 - SEMA-RS - SEMA-RS,MORRINHOS DO SUL-RS,None,RHN,Ativo,02949027,8,84,0,-29.36860,-49.93310,0.00
132,BARRAGEM DO RIO LEÃO,00266 - SEMA-RS - SEMA-RS,00266 - SEMA-RS - SEMA-RS,JACINTO MACHADO-SC,None,RHN,Ativo,02949029,8,84,0,-29.09220,-49.88080,0.00
133,CÂNION FORTALEZA CAMBARÁ DO SUL,00266 - SEMA-RS - SEMA-RS,00266 - SEMA-RS - SEMA-RS,CAMBARÁ DO SUL-RS,None,RHN,Ativo,02949030,8,84,0,-29.08420,-49.99860,0.00
134,MORRO DO FORNO MORRINHOS DO SUL,00266 - SEMA-RS - SEMA-RS,00266 - SEMA-RS - SEMA-RS,MORRINHOS DO SUL-RS,None,RHN,Ativo,02949031,8,84,0,-29.31670,-49.98250,0.00
135,CAPÃO DOS COXOS,00082 - CPRM - Cia de Pesquisa de Recursos Minerais,00001 - ANA - Agência Nacional de Águas ,SÃO FRANCISCO DE PAULA-RS,None,RHN,Ativo,02950045,8,87,0,-29.40830,-50.58420,890.00
136,BRIGADA MILITAR STO. ANTÔNIO DA PATRULHA,00266 - SEMA-RS - SEMA-RS,00266 - SEMA-RS - SEMA-RS,SANTO ANTÔNIO DA PATRULHA-RS,None,RHN,Ativo,02950103,8,87,0,-29.82640,-50.51810,0.00
137,AEROPORTO CAPÁO DA CANOA,00266 - SEMA-RS - SEMA-RS,00266 - SEMA-RS - SEMA-RS,CAPÃO DA CANOA-RS,None,RHN,Ativo,02950104,8,87,0,-29.76610,-50.03830,0.00
138,ETA CORSAN OSÓRIO,00266 - SEMA-RS - SEMA-RS,00266 - SEMA-RS - SEMA-RS,OSÓRIO-RS,None,RHN,Ativo,02950106,8,87,0,-29.88890,-50.25810,0.00
139,BOA ESPERANÇA ROLANTE,00266 - SEMA-RS - SEMA-RS,00266 - SEMA-RS - SEMA-RS,ROLANTE-RS,None,RHN,Ativo,02950107,8,87,0,-29.55860,-50.50250,0.00
140,FAZENDA TAIPAS - S.F. DE PAULA,00266 - SEMA-RS - SEMA-RS,00266 - SEMA-RS - SEMA-RS,SÃO FRANCISCO DE PAULA-RS,None,RHN,Ativo,02950108,8,87,0,-29.46860,-50.45190,0.00
141,PQ. APARADOS DA SERRA CAMBARÁ DO SUL,00266 - SEMA-RS - SEMA-RS,00266 - SEMA-RS - SEMA-RS,CAMBARÁ DO SUL-RS,None,RHN,Ativo,02950109,8,86,0,-29.15860,-50.07890,0.00
142,PROP. BARRA DO OURO,00266 - SEMA-RS - SEMA-RS,00266 - SEMA-RS - SEMA-RS,MAQUINÉ-RS,None,RHN,Ativo,02950110,8,87,0,-29.56810,-50.28500,0.00
143,RINCÃO DOS KROEFF S.F. DE PAULA,00266 - SEMA-RS - SEMA-RS,00266 - SEMA-RS - SEMA-RS,SÃO FRANCISCO DE PAULA-RS,None,RHN,Ativo,02950111,8,87,0,-29.48640,-50.35360,0.00
144,MORRO REUTER,00082 - CPRM - Cia de Pesquisa de Recursos Minerais,00001 - ANA - Agência Nacional de Águas ,MORRO REUTER-RS,None,RHN,Ativo,02951142,8,87,0,-29.52890,-51.03690,492.00
145,CLUBE BARROS CASSAL,00266 - SEMA-RS - SEMA-RS,00266 - SEMA-RS - SEMA-RS,BARROS CASSAL-RS,None,RHN,Ativo,02952060,8,85,0,-29.09610,-52.58860,0.00
146,IGREJA HERVEIRAS,00266 - SEMA-RS - SEMA-RS,00266 - SEMA-RS - SEMA-RS,HERVEIRAS-RS,None,RHN,Ativo,02952061,8,85,0,-29.45360,-52.64860,0.00
147,FAZ. SÃO JOSÉ LINHA CARVALHO,00266 - SEMA-RS - SEMA-RS,00266 - SEMA-RS - SEMA-RS,SINIMBU-RS,None,RHN,Ativo,02952065,8,85,0,-29.38220,-52.71580,0.00
148,LINHA ALMEIDA,00266 - SEMA-RS - SEMA-RS,00266 - SEMA-RS - SEMA-RS,SINIMBU-RS,None,RHN,Ativo,02952066,8,85,0,-29.37000,-52.50720,0.00
149,PROPRIEDADE NOVO CABRAIS,00266 - SEMA-RS - SEMA-RS,00266 - SEMA-RS - SEMA-RS,NOVO CABRAIS-RS,None,RHN,Ativo,02953068,8,85,0,-29.75580,-53.05500,0.00
150,SECR. AGRI. SÃO MARTINHO,00266 - SEMA-RS - SEMA-RS,00266 - SEMA-RS - SEMA-RS,SÃO MARTINHO DA SERRA-RS,None,RHN,Ativo,02953071,7,76,0,-29.53670,-53.85390,0.00
151,RINCÃO DO HERVAL CERRO BRANCO,00266 - SEMA-RS - SEMA-RS,00266 - SEMA-RS - SEMA-RS,CERRO BRANCO-RS,None,RHN,Ativo,02953073,8,85,0,-29.62920,-53.02890,0.00
152,LINHA POMERANOS AGUDO,00266 - SEMA-RS - SEMA-RS,00266 - SEMA-RS - SEMA-RS,AGUDO-RS,None,RHN,Ativo,02953074,8,85,0,-29.58440,-53.14920,0.00
153,COXILHA DO PAU FINADO SÃO GABRIEL,00266 - SEMA-RS - SEMA-RS,00266 - SEMA-RS - SEMA-RS,SÃO GABRIEL-RS,None,RHN,Ativo,02954040,8,85,0,-29.95110,-54.33170,0.00
154,SECR. AGR. M. AMB. DILERMANO GUIAR,00266 - SEMA-RS - SEMA-RS,00266 - SEMA-RS - SEMA-RS,DILERMANDO DE AGUIAR-RS,None,RHN,Ativo,02954041,7,76,0,-29.70750,-54.20560,0.00
155,FAZENDA SANTA TEREZA S.F. DE ASSIS,00266 - SEMA-RS - SEMA-RS,00266 - SEMA-RS - SEMA-RS,SÃO FRANCISCO DE ASSIS-RS,None,RHN,Ativo,02954044,7,76,0,-29.32780,-54.94750,0.00
156,AGRP. SANTO ANTÔNIO JARI,00266 - SEMA-RS - SEMA-RS,00266 - SEMA-RS - SEMA-RS,JARÍ-RS,None,RHN,Ativo,02954045,7,76,0,-29.22580,-54.19250,0.00
157,COOPERATIVA AGROSOLO UNISTALDA,00266 - SEMA-RS - SEMA-RS,00266 - SEMA-RS - SEMA-RS,UNISTALDA-RS,None,RHN,Ativo,02955022,7,75,0,-29.04610,-55.15610,0.00
158,ESCOLATÉCNICA ENCRUZILHADA MAÇAMBARÁ,00266 - SEMA-RS - SEMA-RS,00266 - SEMA-RS - SEMA-RS,MAÇAMBARA-RS,None,RHN,Ativo,02955023,7,76,0,-29.00580,-55.50890,0.00
159,FAZENDA CORDILHEIRA S.F. DE ASSIS,00266 - SEMA-RS - SEMA-RS,00266 - SEMA-RS - SEMA-RS,SÃO FRANCISCO DE ASSIS-RS,None,RHN,Ativo,02955024,7,76,0,-29.42640,-55.15830,0.00
160,CÂMARA DE VEREADORES MAÇAMBARÁ,00266 - SEMA-RS - SEMA-RS,00266 - SEMA-RS - SEMA-RS,MAÇAMBARA-RS,None,RHN,Ativo,02956011,7,75,0,-29.14780,-56.06500,0.00
161,SANCHURI (ESCOLA) URUGUAIANA,00266 - SEMA-RS - SEMA-RS,00266 - SEMA-RS - SEMA-RS,URUGUAIANA-RS,None,RHN,Ativo,02956012,7,77,0,-29.54310,-56.81220,0.00
162,AGROP. CERRO DO COQUEIRO URUGUAIANA,00266 - SEMA-RS - SEMA-RS,00266 - SEMA-RS - SEMA-RS,URUGUAIANA-RS,None,RHN,Ativo,02956013,7,76,0,-29.77860,-56.52060,0.00
163,FAZENDA SÃO LEONTINO ALEGRETE,00266 - SEMA-RS - SEMA-RS,00266 - SEMA-RS - SEMA-RS,ALEGRETE-RS,None,RHN,Ativo,02956016,7,76,0,-29.75920,-56.14860,0.00
164,ETA VIAMÃO,00266 - SEMA-RS - SEMA-RS,00266 - SEMA-RS - SEMA-RS,VIAMÃO-RS,None,RHN,Ativo,03050011,8,87,0,-30.09580,-50.98250,0.00
165,FAZENDA CAVALHADA PALMARES,00266 - SEMA-RS - SEMA-RS,00266 - SEMA-RS - SEMA-RS,MOSTARDAS-RS,None,RHN,Ativo,03050014,8,87,0,-30.50110,-50.57750,0.00
166,ESCOLA MARIO QUINTANA MOSTADAS,00266 - SEMA-RS - SEMA-RS,00266 - SEMA-RS - SEMA-RS,MOSTARDAS-RS,None,RHN,Ativo,03050015,8,87,0,-30.69440,-50.56860,0.00
167,ESTACIONAMENETO PREFEITURA SERTÃO SANTANA,00266 - SEMA-RS - SEMA-RS,00266 - SEMA-RS - SEMA-RS,SERTÃO SANTANA-RS,None,RHN,Ativo,03051071,8,87,0,-30.46080,-51.60310,0.00
168,PREFEITURA MARIANA PIMENTEL,00266 - SEMA-RS - SEMA-RS,00266 - SEMA-RS - SEMA-RS,MARIANA PIMENTEL-RS,None,RHN,Ativo,03051072,8,87,0,-30.35420,-51.58440,0.00
169,PROPRIEDADE BARÃO DO TRIUNFO,00266 - SEMA-RS - SEMA-RS,00266 - SEMA-RS - SEMA-RS,BARÃO DO TRIUNFO-RS,None,RHN,Ativo,03051074,8,87,0,-30.50530,-51.90030,0.00
170,COTRIBÁ PANTANO GRANDE,00266 - SEMA-RS - SEMA-RS,00266 - SEMA-RS - SEMA-RS,PANTANO GRANDE-RS,None,RHN,Ativo,03052025,8,85,0,-30.20420,-52.37030,0.00
171,CHECHE DOM FELICIANO,00266 - SEMA-RS - SEMA-RS,00266 - SEMA-RS - SEMA-RS,DOM FELICIANO-RS,None,RHN,Ativo,03052026,8,87,0,-30.70170,-52.11220,0.00
172,LAVRAS DO SUL,00007 - CEEE - CEEE,00007 - CEEE - CEEE,LAVRAS DO SUL-RS,None,RHN,Ativo,03053007,8,87,0,-30.81750,-53.90140,300.00
173,COTRISEL VILA NOVA DO SUL,00266 - SEMA-RS - SEMA-RS,00266 - SEMA-RS - SEMA-RS,VILA NOVA DO SUL-RS,None,RHN,Ativo,03053032,8,85,0,-30.33530,-53.89250,0.00
174,MARCO DAS ÁGUAS LAVRAS DO SUL,00266 - SEMA-RS - SEMA-RS,00266 - SEMA-RS - SEMA-RS,LAVRAS DO SUL-RS,None,RHN,Ativo,03054028,8,87,0,-30.74780,-54.13750,0.00
175,AZEVEDO SODRÉ SÃO GABRIEL,00266 - SEMA-RS - SEMA-RS,00266 - SEMA-RS - SEMA-RS,SÃO GABRIEL-RS,None,RHN,Ativo,03054029,7,76,0,-30.09720,-54.64390,0.00
176,FAZENDA SÃO GABRIEL,00266 - SEMA-RS - SEMA-RS,00266 - SEMA-RS - SEMA-RS,SÃO GABRIEL-RS,None,RHN,Ativo,03054030,7,76,0,-30.48110,-54.55330,0.00
177,TIARAJU SÃO GABRIEL,00266 - SEMA-RS - SEMA-RS,00266 - SEMA-RS - SEMA-RS,SÃO GABRIEL-RS,None,RHN,Ativo,03054031,7,76,0,-30.24470,-54.36970,0.00
178,USINA EÓLICA CERRO CHATO,00266 - SEMA-RS - SEMA-RS,00266 - SEMA-RS - SEMA-RS,SANTANA DO LIVRAMENTO-RS,None,RHN,Ativo,03055016,7,76,0,-30.79190,-55.66170,0.00
179,ESTÂNCIA SARANDI S. LIVRAMENTO,00266 - SEMA-RS - SEMA-RS,00266 - SEMA-RS - SEMA-RS,SANTANA DO LIVRAMENTO-RS,None,RHN,Ativo,03055017,7,77,0,-30.66500,-55.95310,0.00
180,CABECEIRA SAICÃ ROSÁRIO DO SUL,00266 - SEMA-RS - SEMA-RS,00266 - SEMA-RS - SEMA-RS,ROSÁRIO DO SUL-RS,None,RHN,Ativo,03055018,7,76,0,-30.22690,-55.15530,0.00
181,CERRO DO COMBATE S. LIVRAMENTO,00266 - SEMA-RS - SEMA-RS,00266 - SEMA-RS - SEMA-RS,SANTANA DO LIVRAMENTO-RS,None,RHN,Ativo,03055019,7,76,0,-30.54690,-55.31970,0.00
182,ESTÂNCIA SANTA HILMA S. LIVRAMENTO,00266 - SEMA-RS - SEMA-RS,00266 - SEMA-RS - SEMA-RS,SANTANA DO LIVRAMENTO-RS,None,RHN,Ativo,03055021,7,77,0,-30.94530,-55.66640,0.00
183,ESTÂNCIA CATY QUARAÍ,00266 - SEMA-RS - SEMA-RS,00266 - SEMA-RS - SEMA-RS,QUARAÍ-RS,None,RHN,Ativo,03056029,7,77,0,-30.42470,-56.02060,0.00
184,CTG ESTÂNCIA REAL DE BOJURU,00266 - SEMA-RS - SEMA-RS,00266 - SEMA-RS - SEMA-RS,SÃO JOSÉ DO NORTE-RS,None,RHN,Ativo,03151074,8,87,0,-31.65500,-51.43750,0.00
185,PQ. DE MÁQUINAS ARROIO DO PADRE,00266 - SEMA-RS - SEMA-RS,00266 - SEMA-RS - SEMA-RS,ARROIO DO PADRE-RS,None,RHN,Ativo,03152046,8,87,0,-31.44580,-52.42060,0.00
186,SECRETARIA AGRIC. MORRO REDONDO,00266 - SEMA-RS - SEMA-RS,00266 - SEMA-RS - SEMA-RS,MORRO REDONDO-RS,None,RHN,Ativo,03152047,8,88,0,-31.60690,-52.62640,0.00
187,ESTÂNCIA DA GRAÇA PELOTAS,00266 - SEMA-RS - SEMA-RS,00266 - SEMA-RS - SEMA-RS,PELOTAS-RS,None,RHN,Ativo,03152051,8,87,0,-31.62580,-52.23000,0.00
188,SÃO LOURENÇO DO SUL - COOPAR,00266 - SEMA-RS - SEMA-RS,00266 - SEMA-RS - SEMA-RS,SÃO LOURENÇO DO SUL-RS,None,RHN,Ativo,03152052,8,87,0,-31.25970,-52.20360,0.00
189,CPRM PEDRAS ALTAS,00266 - SEMA-RS - SEMA-RS,00266 - SEMA-RS - SEMA-RS,PEDRAS ALTAS-RS,None,RHN,Ativo,03153031,8,88,0,-31.73360,-53.58860,0.00
190,USINA TERMOELÉTRICA PIRATINI,00266 - SEMA-RS - SEMA-RS,00266 - SEMA-RS - SEMA-RS,PIRATINI-RS,None,RHN,Ativo,03153035,8,87,0,-31.24190,-53.18080,0.00
191,ADUANA ACEGUÁ,00266 - SEMA-RS - SEMA-RS,00266 - SEMA-RS - SEMA-RS,ACEGUÁ-RS,None,RHN,Ativo,03154011,8,88,0,-31.86610,-54.16720,0.00
192,AEROPORTO BAGÉ,00266 - SEMA-RS - SEMA-RS,00266 - SEMA-RS - SEMA-RS,BAGÉ-RS,None,RHN,Ativo,03154012,7,79,0,-31.38890,-54.11310,0.00
193,BENTO RENGO DOM PEDRITO,00266 - SEMA-RS - SEMA-RS,00266 - SEMA-RS - SEMA-RS,DOM PEDRITO-RS,None,RHN,Ativo,03154013,7,76,0,-31.27000,-54.53110,0.00
194,JOSÉ OTÍVIO BAGÉ,00266 - SEMA-RS - SEMA-RS,00266 - SEMA-RS - SEMA-RS,BAGÉ-RS,None,RHN,Ativo,03154014,7,79,0,-31.17920,-54.15690,0.00
195,PASSO SÃO LUIS BAGÉ,00266 - SEMA-RS - SEMA-RS,00266 - SEMA-RS - SEMA-RS,BAGÉ-RS,None,RHN,Ativo,03154015,7,79,0,-31.51190,-54.51140,0.00
196,TORQUATO SEVERO DOM PEDRITO,00266 - SEMA-RS - SEMA-RS,00266 - SEMA-RS - SEMA-RS,DOM PEDRITO-RS,None,RHN,Ativo,03154016,7,76,0,-31.02220,-54.18470,0.00
197,VILA SERRILHADA DOM PEDRITO,00266 - SEMA-RS - SEMA-RS,00266 - SEMA-RS - SEMA-RS,DOM PEDRITO-RS,None,RHN,Manutenção,03154017,7,76,0,-31.43780,-54.71220,0.00
198,MARCO ITAQUATIÁ S. LIVRAMENTO,00266 - SEMA-RS - SEMA-RS,00266 - SEMA-RS - SEMA-RS,SANTANA DO LIVRAMENTO-RS,None,RHN,Ativo,03155004,7,76,0,-31.00500,-55.34080,0.00
199,AGROPECUÁRIA POZZOBON S. LIVRAMENTO,00266 - SEMA-RS - SEMA-RS,00266 - SEMA-RS - SEMA-RS,SANTANA DO LIVRAMENTO-RS,None,RHN,Ativo,03155005,7,76,0,-31.23970,-55.09440,0.00
200,BARRAGEM DO CHASQUEIRO ARROIO GRANDE,00266 - SEMA-RS - SEMA-RS,00266 - SEMA-RS - SEMA-RS,ARROIO GRANDE-RS,None,RHN,Ativo,03253029,8,88,0,-32.16190,-53.00780,0.00
201,CORSAN HERVAL,00266 - SEMA-RS - SEMA-RS,00266 - SEMA-RS - SEMA-RS,HERVAL-RS,None,RHN,Ativo,03253030,8,88,0,-32.02890,-53.39780,0.00
202,PASSO DO CENTURIÃO HERVAL,00266 - SEMA-RS - SEMA-RS,00266 - SEMA-RS - SEMA-RS,HERVAL-RS,None,RHN,Ativo,03253031,8,88,0,-32.11940,-53.73500,0.00
203,AGRORIZA S. VITÓRIA PALMAR,00266 - SEMA-RS - SEMA-RS,00266 - SEMA-RS - SEMA-RS,SANTA VITÓRIA DO PALMAR-RS,None,RHN,Ativo,03353020,8,88,0,-33.23810,-53.06190,0.00
204,MISSÃO SURUCUCU,00082 - CPRM - Cia de Pesquisa de Recursos Minerais,00001 - ANA - Agência Nacional de Águas ,ALTO ALEGRE-RR,None,RHN,Ativo,08263000,1,14,0,2.83580,-63.64170,0.00
205,MALOCA DO ERICÓ,00082 - CPRM - Cia de Pesquisa de Recursos Minerais,00001 - ANA - Agência Nacional de Águas ,ALTO ALEGRE-RR,None,RHN,Ativo,08362000,1,14,0,3.63190,-62.39890,0.00
206,TAMISHIYACU,00906 - SENAMHI-PERU - SENAMHI-PERU,00906 - SENAMHI-PERU - SENAMHI-PERU,PERU-PU,RIO SOLIMÕES/AMAZONAS,RHN,Ativo,10075000,1,10,10001000,-4.00360,-73.16110,105.00
207,MAZAN,00906 - SENAMHI-PERU - SENAMHI-PERU,00906 - SENAMHI-PERU - SENAMHI-PERU,PERU-PU,RIO NAPO,RHN,Ativo,10086700,1,10,10000090,-3.48810,-73.08190,0.00
208,TABATINGA,00082 - CPRM - Cia de Pesquisa de Recursos Minerais,00001 - ANA - Agência Nacional de Águas ,TABATINGA-AM,RIO SOLIMÕES/AMAZONAS,CotaOnline,Ativo,10100000,1,10,10001000,-4.23470,-69.94470,78.00
209,TABATINGA,00082 - CPRM - Cia de Pesquisa de Recursos Minerais,00001 - ANA - Agência Nacional de Águas ,TABATINGA-AM,RIO SOLIMÕES/AMAZONAS,RHN,Ativo,10100000,1,10,10001000,-4.23470,-69.94470,78.00
210,PALMEIRAS DO JAVARI,"00100 - COHIDRO - Consultoria, Estudos e Projetos",00001 - ANA - Agência Nacional de Águas ,ATALAIA DO NORTE-AM,RIO JAVARI,RHN,Ativo,10200000,1,10,10900000,-5.13890,-72.81360,142.00
211,ESTIRÃO DO REPOUSO,"00100 - COHIDRO - Consultoria, Estudos e Projetos",00001 - ANA - Agência Nacional de Águas ,ATALAIA DO NORTE-AM,RIO JAVARI,RHN,Ativo,10500000,1,10,10900000,-4.34080,-70.90560,89.00
212,LADÁRIO - JUSANTE,"00100 - COHIDRO - Consultoria, Estudos e Projetos",00001 - ANA - Agência Nacional de Águas ,ATALAIA DO NORTE-AM,RIO ITACUAI,RHN,Ativo,10910000,1,10,10940000,-4.58360,-70.26440,91.00
213,SÃO PAULO DE OLIVENÇA,"00100 - COHIDRO - Consultoria, Estudos e Projetos",00001 - ANA - Agência Nacional de Águas ,SÃO PAULO DE OLIVENÇA-AM,RIO SOLIMÕES/AMAZONAS,RHN,Ativo,11400000,1,11,10001000,-3.45690,-68.91190,71.00
214,SANTO ANTÔNIO DO IÇÁ,"00100 - COHIDRO - Consultoria, Estudos e Projetos",00001 - ANA - Agência Nacional de Águas ,SANTO ANTÔNIO DO IÇÁ-AM,RIO SOLIMÕES/AMAZONAS,RHN,Ativo,11500000,1,11,10001000,-3.10170,-67.93560,53.00
215,COLOCAÇÃO CAXIAS NOVO,"00100 - COHIDRO - Consultoria, Estudos e Projetos",00001 - ANA - Agência Nacional de Águas ,JUTAÍ-AM,RIO JUTAÍ,RHN,Ativo,12100000,1,12,12103000,-4.65140,-68.32440,0.00
216,NOVO CUJUBIM,"00100 - COHIDRO - Consultoria, Estudos e Projetos",00001 - ANA - Agência Nacional de Águas ,JUTAÍ-AM,RIO JUTAÍ,RHN,Ativo,12160000,1,12,12103000,-4.65140,-68.32440,0.00
217,PORTO SEGURO,"00100 - COHIDRO - Consultoria, Estudos e Projetos",00001 - ANA - Agência Nacional de Águas ,JUTAÍ-AM,RIO JUTAÍ,RHN,Ativo,12240000,1,12,12103000,-3.33720,-67.49170,0.00
218,FONTE BOA,"00100 - COHIDRO - Consultoria, Estudos e Projetos",00001 - ANA - Agência Nacional de Águas ,FONTE BOA-AM,RIO SOLIMÕES/AMAZONAS,RHN,Ativo,12351000,1,12,10001000,-2.49140,-66.06170,0.00
219,THAUMATURGO,00426 - CONSTRUFAM - CONSTRUFAM,00001 - ANA - Agência Nacional de Águas ,MARECHAL THAUMATURGO-AC,RIO JURUÁ,RHN,Ativo,12370000,1,12,12200000,-8.94580,-72.78470,0.00
220,PORTO WALTER,00426 - CONSTRUFAM - CONSTRUFAM,00001 - ANA - Agência Nacional de Águas ,PORTO WALTER-AC,RIO JURUÁ,RHN,Ativo,12390000,1,12,12200000,-8.26720,-72.74110,0.00
221,CRUZEIRO DO SUL,00426 - CONSTRUFAM - CONSTRUFAM,00001 - ANA - Agência Nacional de Águas ,CRUZEIRO DO SUL-AC,RIO JURUÁ,RHN,Ativo,12500000,1,12,12200000,-7.63330,-72.66030,0.00
222,PONTE DO RIO LIBERDADE,00426 - CONSTRUFAM - CONSTRUFAM,00001 - ANA - Agência Nacional de Águas ,TARAUACÁ-AC,RIO LIBERDADE,RHN,Ativo,12510500,1,12,12253000,-7.79940,-72.02110,189.00
223,IPIXUNA,00426 - CONSTRUFAM - CONSTRUFAM,00001 - ANA - Agência Nacional de Águas ,IPIXUNA-AM,RIO JURUÁ,RHN,Ativo,12520000,1,12,12200000,-7.05560,-71.68920,0.00
224,SERINGAL SANTO AMARO,00426 - CONSTRUFAM - CONSTRUFAM,00001 - ANA - Agência Nacional de Águas ,EIRUNEPÉ-AM,RIO GREGÓRIO,RHN,Ativo,12540000,1,12,12266000,-7.26670,-70.98330,0.00
225,EIRUNEPÉ - MONTANTE,00426 - CONSTRUFAM - CONSTRUFAM,00001 - ANA - Agência Nacional de Águas ,EIRUNEPÉ-AM,RIO JURUÁ,RHN,Ativo,12550000,1,12,12200000,-6.68440,-69.88110,0.00
226,JORDÃO,00380 - SEMA-AC - Secretaria de Meio Ambiente do Estado do Acre,00380 - SEMA-AC - Secretaria de Meio Ambiente do Estado do Acre,JORDÃO-AC,RIO TARAUACÁ,RHN,Ativo,12557000,1,12,12280000,-9.18830,-71.95250,239.00
227,PONTE DE TARAUACÁ,00426 - CONSTRUFAM - CONSTRUFAM,00001 - ANA - Agência Nacional de Águas ,TARAUACÁ-AC,RIO TARAUACÁ,RHN,Ativo,12590000,1,12,12280000,-8.15190,-70.74560,0.00
228,SERINGAL SANTA HELENA,00426 - CONSTRUFAM - CONSTRUFAM,00001 - ANA - Agência Nacional de Águas ,FEIJÓ-AC,RIO ENVIRA,RHN,Ativo,12640000,1,12,12286000,-8.68580,-70.55110,0.00
229,FEIJÓ,00426 - CONSTRUFAM - CONSTRUFAM,00001 - ANA - Agência Nacional de Águas ,FEIJÓ-AC,RIO ENVIRA,RHN,Ativo,12650000,1,12,12286000,-8.16360,-70.35640,0.00
230,ENVIRA,00426 - CONSTRUFAM - CONSTRUFAM,00001 - ANA - Agência Nacional de Águas ,ENVIRA-AM,RIO TARAUACÁ,RHN,Ativo,12680000,1,12,12280000,-7.42810,-70.02250,0.00
231,SANTOS DUMONT,"00100 - COHIDRO - Consultoria, Estudos e Projetos",00001 - ANA - Agência Nacional de Águas ,ITAMARATI-AM,RIO JURUÁ,RHN,Ativo,12700000,1,12,12200000,-6.44030,-68.24610,0.00
232,GAVIÃO,"00100 - COHIDRO - Consultoria, Estudos e Projetos",00001 - ANA - Agência Nacional de Águas ,CARAUARI-AM,RIO JURUÁ,RHN,Ativo,12840000,1,12,12200000,-4.83920,-66.85060,0.00
233,FORTE DAS GRAÇAS,"00100 - COHIDRO - Consultoria, Estudos e Projetos",00001 - ANA - Agência Nacional de Águas ,JURUÁ-AM,RIO JURUÁ,RHN,Ativo,12842000,1,12,12200000,-3.64140,-66.10310,0.00
234,VILLARREAL,00907 - IDEAM-COLÔMBIA - IDEAM-COLÔMBIA,00907 - IDEAM-COLÔMBIA - IDEAM-COLÔMBIA,LA PEDRERA-CO,RIO CAQUETÁ/JAPURÁ,RHN,Ativo,12844500,1,12,12300000,-1.30940,-69.61920,0.00
235,VILA BITTENCOURT,"00100 - COHIDRO - Consultoria, Estudos e Projetos",00001 - ANA - Agência Nacional de Águas ,JAPURÁ-AM,RIO CAQUETÁ/JAPURÁ,RHN,Ativo,12845000,1,12,12300000,-1.39470,-69.42830,0.00
236,ACANAUI,"00100 - COHIDRO - Consultoria, Estudos e Projetos",00001 - ANA - Agência Nacional de Águas ,JAPURÁ-AM,RIO CAQUETÁ/JAPURÁ,RHN,Ativo,12850000,1,12,12300000,-1.82110,-66.60920,0.00
237,ESTIRÃO DA SANTA CRUZ,"00100 - COHIDRO - Consultoria, Estudos e Projetos",00001 - ANA - Agência Nacional de Águas ,TEFÉ-AM,RIO TEFÉ,RHN,Ativo,12880000,1,12,12403000,-4.29220,-65.20170,0.00
238,TEFÉ - MISSÕES,"00100 - COHIDRO - Consultoria, Estudos e Projetos",00001 - ANA - Agência Nacional de Águas ,TEFÉ-AM,RIO SOLIMÕES/AMAZONAS,RHN,Ativo,12900001,1,12,10001000,-3.37580,-64.65470,0.00
239,SERINGAL MOREIRA,"00100 - COHIDRO - Consultoria, Estudos e Projetos",00001 - ANA - Agência Nacional de Águas ,COARI-AM,RIO COARI,RHN,Ativo,13100000,1,13,13100000,-5.10920,-63.98470,0.00
240,COARI,00082 - CPRM - Cia de Pesquisa de Recursos Minerais,00001 - ANA - Agência Nacional de Águas ,COARI-AM,RIO SOLIMÕES/AMAZONAS,RHN,Ativo,13150003,1,13,10001000,-4.08560,-63.08330,0.00
241,SANTA ROSA DO PURUS - SEDE,00380 - SEMA-AC - Secretaria de Meio Ambiente do Estado do Acre,00380 - SEMA-AC - Secretaria de Meio Ambiente do Estado do Acre,SANTA ROSA DO PURUS-AC,RIO PURUS,RHN,Ativo,13169900,1,13,13300000,-9.43420,-70.49420,0.00
242,MANOEL URBANO,00082 - CPRM - Cia de Pesquisa de Recursos Minerais,00001 - ANA - Agência Nacional de Águas ,MANOEL URBANO-AC,RIO PURUS,RHN,Ativo,13180000,1,13,13300000,-8.88860,-69.27500,0.00
243,SENA MADUREIRA,00082 - CPRM - Cia de Pesquisa de Recursos Minerais,00001 - ANA - Agência Nacional de Águas ,SENA MADUREIRA-AC,RIO IACO,RHN,Ativo,13310000,1,13,13329000,-9.06780,-68.65310,0.00
244,SERINGAL GUARANY,00426 - CONSTRUFAM - CONSTRUFAM,00001 - ANA - Agência Nacional de Águas ,SENA MADUREIRA-AC,RIO CAETÉ,RHN,Ativo,13405000,1,13,13329800,-9.11030,-68.99330,0.00
245,SERINGAL DA CARIDADE,00082 - CPRM - Cia de Pesquisa de Recursos Minerais,00001 - ANA - Agência Nacional de Águas ,BOCA DO ACRE-AM,RIO PURUS,RHN,Ativo,13410000,1,13,13300000,-9.04390,-68.57720,0.00
246,ALDEIA DOS PATOS,00082 - CPRM - Cia de Pesquisa de Recursos Minerais,00001 - ANA - Agência Nacional de Águas ,ASSIS BRASIL-AC,RIO ACRE,RHN,Ativo,13439000,1,13,13330000,-10.92610,-69.92330,256.00
247,ASSIS BRASIL,00082 - CPRM - Cia de Pesquisa de Recursos Minerais,00001 - ANA - Agência Nacional de Águas ,ASSIS BRASIL-AC,RIO ACRE,RHN,Ativo,13450000,1,13,13330000,-10.94360,-69.56560,0.00
248,BRASILÉIA,00082 - CPRM - Cia de Pesquisa de Recursos Minerais,00001 - ANA - Agência Nacional de Águas ,BRASILÉIA-AC,RIO ACRE,RHN,Ativo,13470000,1,13,13330000,-11.01780,-68.74500,0.00
249,EPITACIOLÂNDIA (Colônia São Bento),00082 - CPRM - Cia de Pesquisa de Recursos Minerais,00001 - ANA - Agência Nacional de Águas ,EPITACIOLÂNDIA-AC,RIO ACRE,RHN,Ativo,13490000,1,13,13330000,-10.89560,-68.60810,0.00
250,COLÔNIA DOLORES (XAPURI),00082 - CPRM - Cia de Pesquisa de Recursos Minerais,00001 - ANA - Agência Nacional de Águas ,XAPURI-AC,RIO XAPURI,RHN,Ativo,13540000,1,13,13333200,-10.56060,-68.70470,0.00
251,XAPURI,00082 - CPRM - Cia de Pesquisa de Recursos Minerais,00001 - ANA - Agência Nacional de Águas ,XAPURI-AC,RIO ACRE,RHN,Ativo,13550000,1,13,13330000,-10.65110,-68.50750,0.00
252,CAPIXABA (Colocação São José),00082 - CPRM - Cia de Pesquisa de Recursos Minerais,00001 - ANA - Agência Nacional de Águas ,CAPIXABA-AC,RIO ACRE,RHN,Ativo,13568000,1,13,13330000,-10.38860,-67.93530,0.00
253,ESPALHA (Seringal Belo Horizonte),00082 - CPRM - Cia de Pesquisa de Recursos Minerais,00001 - ANA - Agência Nacional de Águas ,RIO BRANCO-AC,RIOZINHO DA ROLA ou RIO BRANCO,RHN,Ativo,13572000,1,13,13334000,-10.00500,-68.52940,0.00
254,RIO ROLA (Ramal do Barro Alto),00082 - CPRM - Cia de Pesquisa de Recursos Minerais,00001 - ANA - Agência Nacional de Águas ,RIO BRANCO-AC,RIOZINHO DA ROLA ou RIO BRANCO,RHN,Ativo,13578000,1,13,13334000,-10.05670,-67.96390,0.00
255,RIO BRANCO,00082 - CPRM - Cia de Pesquisa de Recursos Minerais,00001 - ANA - Agência Nacional de Águas ,RIO BRANCO-AC,RIO ACRE,RHN,Ativo,13600002,1,13,13330000,-9.97500,-67.80080,0.00
256,PORTO ACRE,00380 - SEMA-AC - Secretaria de Meio Ambiente do Estado do Acre,00380 - SEMA-AC - Secretaria de Meio Ambiente do Estado do Acre,PORTO ACRE-AC,RIO ACRE,RHN,Ativo,13610001,1,13,13330000,-9.58190,-67.52810,134.00
257,FLORIANO PEIXOTO,00426 - CONSTRUFAM - CONSTRUFAM,00001 - ANA - Agência Nacional de Águas ,BOCA DO ACRE-AM,RIO ACRE,RHN,Ativo,13650000,1,13,13330000,-9.06670,-67.39690,0.00
258,VALPARAÍSO - MONTANTE,00426 - CONSTRUFAM - CONSTRUFAM,00001 - ANA - Agência Nacional de Águas ,BOCA DO ACRE-AM,RIO PURUS,RHN,Ativo,13710001,1,13,13300000,-8.65330,-67.37500,0.00
259,LÁBREA,00426 - CONSTRUFAM - CONSTRUFAM,00001 - ANA - Agência Nacional de Águas ,LÁBREA-AM,RIO PURUS,RHN,Ativo,13870000,1,13,13300000,-7.25810,-64.79750,60.00
260,CRISTO,00426 - CONSTRUFAM - CONSTRUFAM,00001 - ANA - Agência Nacional de Águas ,LÁBREA-AM,RIO MUCUIM,RHN,Ativo,13885000,1,13,13360200,-7.46440,-64.24330,0.00
261,ARUMÃ - JUSANTE,00082 - CPRM - Cia de Pesquisa de Recursos Minerais,00001 - ANA - Agência Nacional de Águas ,BERURI-AM,RIO PURUS,RHN,Ativo,13962000,1,13,13300000,-4.72860,-62.14530,0.00
262,BERURI,00082 - CPRM - Cia de Pesquisa de Recursos Minerais,00001 - ANA - Agência Nacional de Águas ,BERURI-AM,RIO PURUS,RHN,Ativo,13990000,1,13,13300000,-3.89890,-61.37420,0.00
263,MITU AUTOMATICA,00907 - IDEAM-COLÔMBIA - IDEAM-COLÔMBIA,00907 - IDEAM-COLÔMBIA - IDEAM-COLÔMBIA,MITU-CO,RIO VAUPÉS/UAUPÉS,RHN,Ativo,14000900,1,14,14230000,1.25940,-70.23890,0.00
264,MANACAPURU,00082 - CPRM - Cia de Pesquisa de Recursos Minerais,00001 - ANA - Agência Nacional de Águas ,MANACAPURU-AM,RIO SOLIMÕES/AMAZONAS,CotaOnline,Ativo,14100000,1,14,10001000,-3.31060,-60.60940,0.00
265,MANACAPURU,00082 - CPRM - Cia de Pesquisa de Recursos Minerais,00001 - ANA - Agência Nacional de Águas ,MANACAPURU-AM,RIO SOLIMÕES/AMAZONAS,RHN,Ativo,14100000,1,14,10001000,-3.31060,-60.60940,0.00
266,CUCUÍ,00082 - CPRM - Cia de Pesquisa de Recursos Minerais,00001 - ANA - Agência Nacional de Águas ,SÃO GABRIEL DA CACHOEIRA-AM,RIO NEGRO,RHN,Ativo,14110000,1,14,14200000,1.21530,-66.85250,0.00
267,FAZENDA RECREIO,00389 - FEMARH-RR - Fundação Estadual do Meio Ambiente e Recursos...,00389 - FEMARH-RR - Fundação Estadual do Meio Ambiente e Recursos...,BOA VISTA-RR,RIO CAUAME,RHN,Ativo,14235200,1,14,14265100,-2.86420,-60.75170,0.00
268,FAZENDA RECREIO,00389 - FEMARH-RR - Fundação Estadual do Meio Ambiente e Recursos...,00389 - FEMARH-RR - Fundação Estadual do Meio Ambiente e Recursos...,BOA VISTA-RR,IGARAPÉ TARIRA,RHN,Ativo,14265100,1,14,14235200,-2.86420,-60.75170,0.00
269,FAZENDA RECREIO,00389 - FEMARH-RR - Fundação Estadual do Meio Ambiente e Recursos...,00389 - FEMARH-RR - Fundação Estadual do Meio Ambiente e Recursos...,BOA VISTA-RR,RIO CAUAME,RHN,Ativo,14265200,1,14,14265100,-2.86420,-60.75170,0.00
270,CURICURIARI,00082 - CPRM - Cia de Pesquisa de Recursos Minerais,00001 - ANA - Agência Nacional de Águas ,SÃO GABRIEL DA CACHOEIRA-AM,RIO NEGRO,RHN,Ativo,14330000,1,14,14200000,-0.20060,-66.80220,0.00
271,BARCELOS,00082 - CPRM - Cia de Pesquisa de Recursos Minerais,00001 - ANA - Agência Nacional de Águas ,BARCELOS-AM,RIO NEGRO,RHN,Ativo,14480002,1,14,14200000,-0.96580,-62.93110,0.00
272,BARCELOS,00082 - CPRM - Cia de Pesquisa de Recursos Minerais,00001 - ANA - Agência Nacional de Águas ,BARCELOS-AM,RIO NEGRO,CotaOnline,Ativo,14480002,1,14,14200000,-0.96580,-62.93110,0.00
273,UAICÁS,00082 - CPRM - Cia de Pesquisa de Recursos Minerais,00001 - ANA - Agência Nacional de Águas ,ALTO ALEGRE-RR,RIO URARICOERA,RHN,Ativo,14488000,1,14,14261000,3.54970,-63.16920,0.00
274,MARACÁ,00082 - CPRM - Cia de Pesquisa de Recursos Minerais,00001 - ANA - Agência Nacional de Águas ,ALTO ALEGRE-RR,RIO URARICOERA,RHN,Ativo,14489000,1,14,14261000,3.35280,-61.42220,0.00
275,FAZENDA CAJUPIRANGA,00082 - CPRM - Cia de Pesquisa de Recursos Minerais,00001 - ANA - Agência Nacional de Águas ,ALTO ALEGRE-RR,RIO URARICOERA,RHN,Ativo,14495000,1,14,14261000,3.43810,-61.03670,0.00
276,MOCIDADE,00082 - CPRM - Cia de Pesquisa de Recursos Minerais,00001 - ANA - Agência Nacional de Águas ,BOA VISTA-RR,RIO URARICOERA,RHN,Ativo,14500000,1,14,14261000,3.46440,-60.90970,0.00
277,FAZENDA PASSARÃO,00082 - CPRM - Cia de Pesquisa de Recursos Minerais,00001 - ANA - Agência Nacional de Águas ,BOA VISTA-RR,RIO URARICOERA,RHN,Ativo,14515000,1,14,14261000,3.20780,-60.57110,0.00
278,RIO MAÚ,00082 - CPRM - Cia de Pesquisa de Recursos Minerais,00001 - ANA - Agência Nacional de Águas ,UIRAMUTA-RR,RIO MAÚ OU IRENG,RHN,Ativo,14526400,1,14,14263490,4.57610,-60.13970,0.00
279,PONTE DO TACUTU,00082 - CPRM - Cia de Pesquisa de Recursos Minerais,00001 - ANA - Agência Nacional de Águas ,NORMÂNDIA-RR,RIO TACUTU,RHN,Ativo,14527000,1,14,14263200,3.56750,-59.88830,0.00
280,VILA SURUMU,00082 - CPRM - Cia de Pesquisa de Recursos Minerais,00001 - ANA - Agência Nacional de Águas ,PACARAIMA-RR,RIO SURUMU,RHN,Ativo,14530000,1,14,14264000,4.19610,-60.79390,0.00
281,VILA SURUMU,00082 - CPRM - Cia de Pesquisa de Recursos Minerais,00001 - ANA - Agência Nacional de Águas ,PACARAIMA-RR,RIO SURUMU,GDH,Ativo,14530000,1,14,14264000,4.19610,-60.79390,0.00
282,FAZENDA BANDEIRA BRANCA,00082 - CPRM - Cia de Pesquisa de Recursos Minerais,00001 - ANA - Agência Nacional de Águas ,UIRAMUTA-RR,RIO COTINGO,RHN,Ativo,14540000,1,14,14264200,4.63060,-60.47060,0.00
283,FAZENDA PARAÍSO,00082 - CPRM - Cia de Pesquisa de Recursos Minerais,00001 - ANA - Agência Nacional de Águas ,BONFIM-RR,RIO TACUTU,RHN,Ativo,14558000,1,14,14263200,3.31780,-60.34470,0.00
284,BOA VISTA,00082 - CPRM - Cia de Pesquisa de Recursos Minerais,00001 - ANA - Agência Nacional de Águas ,BOA VISTA-RR,RIO BRANCO,RHN,Ativo,14620000,1,14,14260000,2.82670,-60.65610,0.00
285,FÉ E ESPERANÇA,00082 - CPRM - Cia de Pesquisa de Recursos Minerais,00001 - ANA - Agência Nacional de Águas ,MUCAJAÍ-RR,RIO MUCAJAÍ,RHN,Ativo,14680001,1,14,14265400,2.87080,-61.44060,0.00
286,MUCAJAÍ,00082 - CPRM - Cia de Pesquisa de Recursos Minerais,00001 - ANA - Agência Nacional de Águas ,MUCAJAÍ-RR,RIO MUCAJAÍ,RHN,Ativo,14690000,1,14,14265400,2.47140,-60.91780,0.00
287,CARACARAÍ,00082 - CPRM - Cia de Pesquisa de Recursos Minerais,00001 - ANA - Agência Nacional de Águas ,CARACARAÍ-RR,RIO BRANCO,RHN,Ativo,14710000,1,14,14260000,1.82140,-61.12360,0.00
288,FAZENDA ANAUÁ,00082 - CPRM - Cia de Pesquisa de Recursos Minerais,00001 - ANA - Agência Nacional de Águas ,CARACARAÍ-RR,RIO ANAUA,RHN,Ativo,14740000,1,14,14266000,1.12920,-60.22360,0.00
289,SANTA MARIA DO BOIAÇU,00082 - CPRM - Cia de Pesquisa de Recursos Minerais,00001 - ANA - Agência Nacional de Águas ,RORAINÓPOLIS-RR,RIO BRANCO,RHN,Ativo,14790000,1,14,14260000,-0.50530,-61.78640,0.00
290,MOURA,00082 - CPRM - Cia de Pesquisa de Recursos Minerais,00001 - ANA - Agência Nacional de Águas ,BARCELOS-AM,RIO NEGRO,RHN,Ativo,14840000,1,14,14200000,-1.45670,-61.63470,0.00
291,BASE ALALAÚ,00082 - CPRM - Cia de Pesquisa de Recursos Minerais,00001 - ANA - Agência Nacional de Águas ,RORAINÓPOLIS-RR,RIO ALALAÚ,RHN,Ativo,14850000,1,14,14271200,-0.85860,-60.52000,59.00
292,MANAUS,00082 - CPRM - Cia de Pesquisa de Recursos Minerais,00001 - ANA - Agência Nacional de Águas ,MANAUS-AM,RIO NEGRO,RHN,Ativo,14990000,1,14,14200000,-3.13830,-60.02720,0.00
293,MANAUS,00082 - CPRM - Cia de Pesquisa de Recursos Minerais,00001 - ANA - Agência Nacional de Águas ,MANAUS-AM,RIO NEGRO,CotaOnline,Ativo,14990000,1,14,14200000,-3.13830,-60.02720,0.00
294,UHE GUAPORÉ MONTANTE 2,00803 - CONS.GUAPORÉ - CONS.GUAPORÉ,00803 - CONS.GUAPORÉ - CONS.GUAPORÉ,PONTES E LACERDA-MT,RIO GUAPORÉ,Setor Elétrico,Ativo,15042900,1,15,15210000,-14.82970,-58.91000,540.00
295,UHE GUAPORÉ MONTANTE 1,00803 - CONS.GUAPORÉ - CONS.GUAPORÉ,00803 - CONS.GUAPORÉ - CONS.GUAPORÉ,JAURU-MT,RIO GUAPORÉ,Setor Elétrico,Ativo,15043000,1,15,15210000,-15.05940,-58.91060,485.00
296,UHE GUAPORÉ BARRAMENTO,00803 - CONS.GUAPORÉ - CONS.GUAPORÉ,00803 - CONS.GUAPORÉ - CONS.GUAPORÉ,PONTES E LACERDA-MT,RIO GUAPORÉ,Setor Elétrico,Ativo,15044000,1,15,15210000,-15.12360,-58.96220,305.00
297,UHE GUAPORÉ JUSANTE,00803 - CONS.GUAPORÉ - CONS.GUAPORÉ,00803 - CONS.GUAPORÉ - CONS.GUAPORÉ,PONTES E LACERDA-MT,RIO GUAPORÉ,Setor Elétrico,Ativo,15044100,1,15,15210000,-15.13810,-58.98250,306.00
298,PONTES E LACERDA,00091 - SEMA-MT - SEMA-MT,00091 - SEMA-MT - SEMA-MT,PONTES E LACERDA-MT,RIO GUAPORÉ,RHN,Ativo,15050001,1,15,15210000,-15.21530,-59.35390,0.00
299,PCH SALTO CORGÃO BARRAMENTO,00315 - GACEL - GACEL,00315 - GACEL - GACEL,NOVA LACERDA-MT,RIO CORGÃO,Setor Elétrico,Ativo,15120500,1,15,15213900,-14.44780,-59.48470,550.00
300,PCH SALTO CORGÃO JUSANTE,00315 - GACEL - GACEL,00315 - GACEL - GACEL,NOVA LACERDA-MT,RIO CORGÃO,Setor Elétrico,Ativo,15121000,1,15,15213900,-14.45750,-59.50860,0.00
301,PCH RIO PRATA JUSANTE,00703 - HIDREL COMODORO - HIDREL COMODORO,00703 - HIDREL COMODORO - HIDREL COMODORO,COMODORO-MT,RIO PRATA,Setor Elétrico,Ativo,15122000,1,15,15215900,-13.63000,-59.87610,463.00
302,PCH ESPERANÇA JUSANTE,00551 - ÁGUASCLARAS - ÁGUASCLARAS,00551 - ÁGUASCLARAS - ÁGUASCLARAS,COMODORO-MT,RIO PIOLHINHO,Setor Elétrico,Ativo,15123000,1,15,15216020,-13.78220,-59.79220,469.00
303,PCH CABIXI II BARRAMENTO,00686 - CASSOL - CASSOL,00686 - CASSOL - CASSOL,COMODORO-MT,RIO LAMBARI,Setor Elétrico,Ativo,15123080,1,15,15215500,-13.02060,-60.11140,508.00
304,PCH CABIXI II JUSANTE,00686 - CASSOL - CASSOL,00686 - CASSOL - CASSOL,COMODORO-MT,RIO LAMBARI,Setor Elétrico,Ativo,15123100,1,15,15215500,-13.02030,-60.13500,355.00
305,PCH CABIXI BARRAMENTO,00686 - CASSOL - CASSOL,00686 - CASSOL - CASSOL,VILHENA-RO,RIO CABIXI ou BRANCO,Setor Elétrico,Ativo,15123200,1,15,15216000,-12.95750,-60.13470,491.00
306,PCH CABIXI JUSANTE,00686 - CASSOL - CASSOL,00686 - CASSOL - CASSOL,VILHENA-RO,RIO CABIXI ou BRANCO,Setor Elétrico,Ativo,15123500,1,15,15216000,-12.96330,-60.14920,351.00
307,CABIXI,00082 - CPRM - Cia de Pesquisa de Recursos Minerais,00001 - ANA - Agência Nacional de Águas ,CABIXI-RO,RIO CABIXI ou BRANCO,RHN,Ativo,15124009,1,15,15216000,-13.51250,-60.53000,0.00
308,CGH CASTAMAN I BARRAMENTO,00687 - RIO ENGANADO - Hidrelétrica Rio Enganado Ltda.,00687 - RIO ENGANADO - Hidrelétrica Rio Enganado Ltda.,COLORADO DO OESTE-RO,RIO ENGANADO,Setor Elétrico,Ativo,15128500,1,15,15216030,-13.07940,-60.62190,427.00
309,CGH CASTAMAN I JUSANTE,00687 - RIO ENGANADO - Hidrelétrica Rio Enganado Ltda.,00687 - RIO ENGANADO - Hidrelétrica Rio Enganado Ltda.,COLORADO DO OESTE-RO,RIO ENGANADO,Setor Elétrico,Ativo,15128800,1,15,15216030,-13.09000,-60.62190,349.00
310,CGH CASTAMAN III BARRAMENTO,00159 - CASTAMAN - CASTAMAN,00159 - CASTAMAN - CASTAMAN,COLORADO DO OESTE-RO,RIO ENGANADO,Setor Elétrico,Ativo,15128950,1,15,15216030,-13.13720,-60.64000,302.00
311,CGH CASTAMAN III JUSANTE,00159 - CASTAMAN - CASTAMAN,00159 - CASTAMAN - CASTAMAN,COLORADO DO OESTE-RO,RIO ENGANADO,Setor Elétrico,Ativo,15129000,1,15,15216030,-13.15220,-60.65690,268.00
312,PIMENTEIRAS,00082 - CPRM - Cia de Pesquisa de Recursos Minerais,00001 - ANA - Agência Nacional de Águas ,PIMENTEIRAS DO OESTE-RO,RIO GUAPORÉ,RHN,Ativo,15130000,1,15,15210000,-13.48580,-61.05000,0.00
313,CORUMBIARA,00082 - CPRM - Cia de Pesquisa de Recursos Minerais,00001 - ANA - Agência Nacional de Águas ,CORUMBIARA-RO,RIO CORUMBIARA ANTIGO,RHN,Ativo,15135000,1,15,15216100,-12.95170,-60.82030,0.00
314,"PCH SANTA LUZIA D""OESTE RIO BRANCO",00559 - BERGAMIN - BERGAMIN,00559 - BERGAMIN - BERGAMIN,ALTO ALEGRE DOS PARECIS-RO,RIO BRANCO,Setor Elétrico,Ativo,15138000,1,15,15216300,-12.38420,-61.71060,406.00
315,"PCH SANTA LUZIA D""OESTE MONTANTE",00559 - BERGAMIN - BERGAMIN,00559 - BERGAMIN - BERGAMIN,ALTO ALEGRE DOS PARECIS-RO,RIO COLORADO,Setor Elétrico,Ativo,15143000,1,15,15216250,-12.38000,-61.74970,367.00
316,"PCH SANTA LUZIA D""OESTE JUSANTE",00559 - BERGAMIN - BERGAMIN,00559 - BERGAMIN - BERGAMIN,ALTO ALEGRE DOS PARECIS-RO,RIO COLORADO,Setor Elétrico,Ativo,15145000,1,15,15216250,-12.34560,-61.76970,212.00
317,PEDRAS NEGRAS,00082 - CPRM - Cia de Pesquisa de Recursos Minerais,00001 - ANA - Agência Nacional de Águas ,COSTA MARQUES-RO,RIO GUAPORÉ,RHN,Ativo,15150000,1,15,15210000,-12.85140,-62.89920,152.00
318,CGH ALTOÉ II BARRAMENTO,00225 - ALTO E - ALTOÉ,00225 - ALTO E - ALTOÉ,CEREJEIRAS-RO,RIO SÃO JOÃO,Setor Elétrico,Ativo,15150300,1,15,15240598,-12.55080,-61.53000,403.00
319,CGH ALTOÉ II JUSANTE,00225 - ALTO E - ALTOÉ,00225 - ALTO E - ALTOÉ,PARECIS-RO,RIO SÃO JOÃO,Setor Elétrico,Ativo,15150500,1,15,15240598,-12.58140,-61.52420,210.00
320,PCH ALTA FLORESTA MONTANTE 2,00233 - ELETRON - ELETRON,00233 - ELETRON - ELETRON,ALTA FLORESTA D''OESTE-RO,RIO BRANCO,Setor Elétrico,Ativo,15150800,1,15,15216300,-11.96890,-61.99080,331.00
321,PCH ALTA FLORESTA MONTANTE 1,00233 - ELETRON - ELETRON,00233 - ELETRON - ELETRON,ALTA FLORESTA D''OESTE-RO,RIO BRANCO,Setor Elétrico,Ativo,15151000,1,15,15216300,-11.95310,-62.01250,316.00
322,PCH ALTA FLORESTA BARRAMENTO,00233 - ELETRON - ELETRON,00233 - ELETRON - ELETRON,ALTA FLORESTA D''OESTE-RO,RIO BRANCO,Setor Elétrico,Ativo,15151500,1,15,15216300,-11.93830,-62.04030,316.00
323,PCH ÂNGELO CASSOL BARRAMENTO,00768 - ÂNGELO CASSOL - ÂNGELO CASSOL,00768 - ÂNGELO CASSOL - ÂNGELO CASSOL,ALTA FLORESTA D''OESTE-RO,RIO BRANCO,Setor Elétrico,Ativo,15152000,1,15,15216300,-11.93080,-62.10360,275.00
324,PCH ÂNGELO CASSOL JUSANTE,00768 - ÂNGELO CASSOL - ÂNGELO CASSOL,00768 - ÂNGELO CASSOL - ÂNGELO CASSOL,ALTA FLORESTA D''OESTE-RO,RIO BRANCO,Setor Elétrico,Ativo,15152500,1,15,15216300,-11.92940,-62.10810,278.00
325,PCH CACHOEIRA CACHIMBO ALTO BARRAMENTO,00769 - CACHIMBO ALTO - CACHIMBO ALTO,00769 - CACHIMBO ALTO - CACHIMBO ALTO,ALTA FLORESTA D''OESTE-RO,RIO BRANCO,Setor Elétrico,Ativo,15169000,1,15,15216300,-11.92530,-62.14670,254.00
326,CACHOEIRA DO CACHIMBO,00082 - CPRM - Cia de Pesquisa de Recursos Minerais,00001 - ANA - Agência Nacional de Águas ,ALTA FLORESTA D''OESTE-RO,RIO BRANCO,RHN,Ativo,15170000,1,15,15216300,-11.93060,-62.15280,0.00
327,PCH CACHOEIRA CACHIMBO ALTO JUSANTE,00769 - CACHIMBO ALTO - CACHIMBO ALTO,00769 - CACHIMBO ALTO - CACHIMBO ALTO,ALTA FLORESTA D''OESTE-RO,RIO BRANCO,Setor Elétrico,Ativo,15170200,1,15,15216300,-11.92720,-62.15470,238.00
328,PCH RIO BRANCO BARRAMENTO,00564 - HIDROSSOL - HIDROSSOL,00564 - HIDROSSOL - HIDROSSOL,ALTA FLORESTA D''OESTE-RO,RIO BRANCO,Setor Elétrico,Ativo,15170600,1,15,15216300,-11.91110,-62.18110,214.00
329,PCH RIO BRANCO JUSANTE,00564 - HIDROSSOL - HIDROSSOL,00564 - HIDROSSOL - HIDROSSOL,ALTA FLORESTA D''OESTE-RO,RIO BRANCO,Setor Elétrico,Ativo,15170700,1,15,15216300,-11.90610,-62.18420,204.00
330,PCH FIGUEIRA MONTANTE,00306 - PCH FIGUEIRA - Consórcio PCH Figueira,00306 - PCH FIGUEIRA - Consórcio PCH Figueira,ALTA FLORESTA D''OESTE-RO,RIO SALDANHA,Setor Elétrico,Ativo,15170900,1,15,15216500,-12.05220,-62.17030,392.00
331,PCH FIGUEIRA BARRAMENTO,00306 - PCH FIGUEIRA - Consórcio PCH Figueira,00306 - PCH FIGUEIRA - Consórcio PCH Figueira,ALTA FLORESTA D''OESTE-RO,RIO SALDANHA,Setor Elétrico,Ativo,15171000,1,15,15216500,-11.99580,-62.17170,384.00
332,PCH FIQUEIRA JUSANTE,00306 - PCH FIGUEIRA - Consórcio PCH Figueira,00306 - PCH FIGUEIRA - Consórcio PCH Figueira,ALTA FLORESTA D''OESTE-RO,RIO SALDANHA,Setor Elétrico,Ativo,15171050,1,15,15216500,-11.98750,-62.17640,372.00
333,PCH SALDANHA JUSANTE,01109 - HIDROLUZ - Hidroluz Centrais Elétricas Ltda.,01109 - HIDROLUZ - Hidroluz Centrais Elétricas Ltda.,ALTA FLORESTA D''OESTE-RO,RIO SALDANHA,Setor Elétrico,Ativo,15171100,1,15,15216500,-11.95610,-62.18060,311.00
334,PCH MONTE BELO BARRAMENTO,00307 - ELETROSSOL - ELETROSSOL,00307 - ELETROSSOL - ELETROSSOL,ALTA FLORESTA D''OESTE-RO,RIO SALDANHA,Setor Elétrico,Ativo,15171800,1,15,15216500,-11.93360,-62.17920,292.00
335,PCH MONTE BELO JUSANTE,00307 - ELETROSSOL - ELETROSSOL,00307 - ELETROSSOL - ELETROSSOL,ALTA FLORESTA D''OESTE-RO,RIO SALDANHA,Setor Elétrico,Ativo,15172000,1,15,15216500,-11.92750,-62.18360,246.00
336,PRINCIPE DA BEIRA,00082 - CPRM - Cia de Pesquisa de Recursos Minerais,00001 - ANA - Agência Nacional de Águas ,COSTA MARQUES-RO,RIO GUAPORÉ,RHN,Ativo,15200000,1,15,15210000,-12.42670,-64.42530,0.00
337,UHE JIRAU PRÍNCIPE DA BEIRA,00342 - ESBR - ESBR,00342 - ESBR - ESBR,COSTA MARQUES-RO,RIO GUAPORÉ,Setor Elétrico,Ativo,15200010,1,15,15210000,-12.42670,-64.42530,210.00
338,BOCA DO POMPEU - JUSANTE,00082 - CPRM - Cia de Pesquisa de Recursos Minerais,00001 - ANA - Agência Nacional de Águas ,GUAJARÁ-MIRIM-RO,RIO OURO PRETO,RHN,Ativo,15248010,1,15,15221400,-10.91750,-65.04330,0.00
339,GUAJARÁ-MIRIM,00082 - CPRM - Cia de Pesquisa de Recursos Minerais,00001 - ANA - Agência Nacional de Águas ,GUAJARÁ-MIRIM-RO,RIO MAMORÉ,RHN,Ativo,15250000,1,15,15201000,-10.79250,-65.34780,109.29
340,GUAJARÁ-MIRIM,00082 - CPRM - Cia de Pesquisa de Recursos Minerais,00001 - ANA - Agência Nacional de Águas ,GUAJARÁ-MIRIM-RO,RIO MAMORÉ,CotaOnline,Ativo,15250000,1,15,15201000,-10.79250,-65.34780,109.29
341,UHE JIRAU GUAJARÁ-MIRIM,00342 - ESBR - ESBR,00342 - ESBR - ESBR,GUAJARÁ-MIRIM-RO,RIO MAMORÉ,Setor Elétrico,Ativo,15250001,1,15,15201000,-10.72610,-65.34780,147.00
342,SALVACION,00906 - SENAMHI-PERU - SENAMHI-PERU,00906 - SENAMHI-PERU - SENAMHI-PERU,PERU-PU,RIO MADRE DE DIOS,RHN,Ativo,15307000,1,15,15200100,-12.83330,-71.50000,520.00
343,PAKITZA,00906 - SENAMHI-PERU - SENAMHI-PERU,00906 - SENAMHI-PERU - SENAMHI-PERU,PERU-PU,RIO MADRE DE DIOS,RHN,Ativo,15308000,1,15,15200100,-11.95000,-71.28330,319.00
344,UHE JIRAU JUSANTE RIO BENI,00342 - ESBR - ESBR,00342 - ESBR - ESBR,NOVA MAMORE-RO,RIO MADEIRA,Setor Elétrico,Ativo,15318000,1,15,15200000,-10.35690,-65.36140,130.00
345,ABUNÃ,00082 - CPRM - Cia de Pesquisa de Recursos Minerais,00001 - ANA - Agência Nacional de Águas ,PORTO VELHO-RO,RIO MADEIRA,RHN,Ativo,15320002,1,15,15200000,-9.70530,-65.36670,74.65
346,ABUNÃ,00082 - CPRM - Cia de Pesquisa de Recursos Minerais,00001 - ANA - Agência Nacional de Águas ,PORTO VELHO-RO,RIO MADEIRA,CotaOnline,Manutenção,15320002,1,15,15200000,-9.70530,-65.36670,74.65
347,PLÁCIDO DE CASTRO,00082 - CPRM - Cia de Pesquisa de Recursos Minerais,00001 - ANA - Agência Nacional de Águas ,PLÁCIDO DE CASTRO-AC,RIO ABUNÃ,RHN,Ativo,15324000,1,15,15223000,-10.33780,-67.18310,0.00
348,UHE JIRAU NOVA CALIFORNIA,00342 - ESBR - ESBR,00342 - ESBR - ESBR,PORTO VELHO-RO,RIO ABUNÃ,Setor Elétrico,Ativo,15324500,1,15,15223000,-9.89360,-66.61860,115.00
349,MORADA NOVA - JUSANTE,00082 - CPRM - Cia de Pesquisa de Recursos Minerais,00001 - ANA - Agência Nacional de Águas ,PORTO VELHO-RO,RIO ABUNÃ,RHN,Ativo,15326000,1,15,15223000,-9.78470,-65.52750,0.00
350,MORADA NOVA - JUSANTE,00082 - CPRM - Cia de Pesquisa de Recursos Minerais,00001 - ANA - Agência Nacional de Águas ,PORTO VELHO-RO,RIO ABUNÃ,CotaOnline,Ativo,15326000,1,15,15223000,-9.78470,-65.52750,0.00
351,UHE JIRAU MORADA NOVA JUSANTE,00342 - ESBR - ESBR,00342 - ESBR - ESBR,PORTO VELHO-RO,RIO ABUNÃ,Setor Elétrico,Ativo,15326010,1,15,15223000,-9.78470,-65.52750,110.00
352,UHE JIRAU VELHA MUTUM-PARANÁ,00342 - ESBR - ESBR,00342 - ESBR - ESBR,PORTO VELHO-RO,RIO MUTUM-PARANA,Setor Elétrico,Ativo,15335000,1,15,15224100,-9.61750,-64.93310,92.38
353,UHE JIRAU VELHA MUTUM-PARANÁ,00342 - ESBR - ESBR,00342 - ESBR - ESBR,PORTO VELHO-RO,RIO MUTUM-PARANA,RHN,Ativo,15335000,1,15,15224100,-9.61750,-64.93310,92.38
354,UHE JIRAU RESERVATÓRIO,00342 - ESBR - ESBR,00342 - ESBR - ESBR,PORTO VELHO-RO,RIO MADEIRA,Setor Elétrico,Ativo,15340300,1,15,15200000,-9.28280,-64.67280,0.00
355,UHE JIRAU BARRAMENTO,00342 - ESBR - ESBR,00342 - ESBR - ESBR,PORTO VELHO-RO,RIO MADEIRA,Setor Elétrico,Ativo,15340500,1,15,15200000,-9.25030,-64.64830,69.00
356,UHE JIRAU PORTO R4,00342 - ESBR - ESBR,00342 - ESBR - ESBR,PORTO VELHO-RO,RIO MADEIRA,Setor Elétrico,Ativo,15340600,1,15,15200000,-9.24860,-64.62640,74.00
357,UHE SANTO ANTÔNIO JUSANTE CALDEIRÃO DO INFERNO,00354 - SANTO ANTONIO - SANTO ANTONIO,00354 - SANTO ANTONIO - SANTO ANTONIO,PORTO VELHO-RO,RIO MADEIRA,Setor Elétrico,Ativo,15341000,1,15,15200000,-9.20280,-64.60860,73.75
358,UHE SANTO ANTÔNIO MONTANTE JACIPARANÁ,00354 - SANTO ANTONIO - SANTO ANTONIO,00354 - SANTO ANTONIO - SANTO ANTONIO,PORTO VELHO-RO,RIO JACIPARANÁ,Setor Elétrico,Ativo,15344000,1,15,15240200,-9.50110,-64.38170,77.90
359,UHE SANTO ANTÔNIO JACIPARANÁ VILA,00354 - SANTO ANTONIO - SANTO ANTONIO,00354 - SANTO ANTONIO - SANTO ANTONIO,PORTO VELHO-RO,RIO JACIPARANÁ,Setor Elétrico,Ativo,15345900,1,15,15240200,-9.26170,-64.40140,73.24
360,UHE SANTO ANTÔNIO RESERVATÓRIO,00354 - SANTO ANTONIO - SANTO ANTONIO,00354 - SANTO ANTONIO - SANTO ANTONIO,PORTO VELHO-RO,RIO MADEIRA,Setor Elétrico,Ativo,15350500,1,15,15200000,-8.84190,-63.99500,0.00
361,UHE SANTO ANTÔNIO MONTANTE,00354 - SANTO ANTONIO - SANTO ANTONIO,00354 - SANTO ANTONIO - SANTO ANTONIO,PORTO VELHO-RO,RIO MADEIRA,Setor Elétrico,Ativo,15360000,1,15,15200000,-8.79670,-63.95830,0.00
362,UHE SANTO ANTÔNIO JUSANTE R-7,00354 - SANTO ANTONIO - SANTO ANTONIO,00354 - SANTO ANTONIO - SANTO ANTONIO,PORTO VELHO-RO,RIO MADEIRA,Setor Elétrico,Ativo,15380000,1,15,15200000,-8.78220,-63.93030,60.68
363,UHE SANTO ANTÔNIO PORTO VELHO,00354 - SANTO ANTONIO - SANTO ANTONIO,00354 - SANTO ANTONIO - SANTO ANTONIO,PORTO VELHO-RO,RIO MADEIRA,Setor Elétrico,Ativo,15390000,1,15,15200000,-8.74810,-63.91580,63.66
364,PORTO VELHO,00082 - CPRM - Cia de Pesquisa de Recursos Minerais,00001 - ANA - Agência Nacional de Águas ,PORTO VELHO-RO,RIO MADEIRA,CotaOnline,Ativo,15400000,1,15,15200000,-8.74830,-63.91690,42.88
365,PORTO VELHO,00082 - CPRM - Cia de Pesquisa de Recursos Minerais,00001 - ANA - Agência Nacional de Águas ,PORTO VELHO-RO,RIO MADEIRA,RHN,Ativo,15400000,1,15,15200000,-8.74830,-63.91690,42.88
366,PORTO VELHO,00082 - CPRM - Cia de Pesquisa de Recursos Minerais,00001 - ANA - Agência Nacional de Águas ,PORTO VELHO-RO,RIO MADEIRA,GDH,Ativo,15400000,1,15,15200000,-8.74830,-63.91690,42.88
367,PCH SANTA CRUZ DE MONTE NEGRO MONTANTE 2,00362 - CANAÃ - CANAÃ,00362 - CANAÃ - CANAÃ,MONTE NEGRO-RO,IGARAPÉ NOVA FLORESTA,Setor Elétrico,Ativo,15405000,1,15,15230100,-10.47190,-63.25940,146.00
368,PCH SANTA CRUZ DE MONTE NEGRO MONTANTE 1,00362 - CANAÃ - CANAÃ,00362 - CANAÃ - CANAÃ,MONTE NEGRO-RO,RIO JAMARI,Setor Elétrico,Ativo,15406000,1,15,15230000,-10.43750,-63.23580,144.00
369,PCH SANTA CRUZ DE MONTE NEGRO BARRAMENTO,00362 - CANAÃ - CANAÃ,00362 - CANAÃ - CANAÃ,MONTE NEGRO-RO,RIO JAMARI,Setor Elétrico,Ativo,15408600,1,15,15230000,-10.23030,-63.23110,128.00
370,PCH SANTA CRUZ DE MONTE NEGRO BARRAMENTO,00362 - CANAÃ - CANAÃ,00362 - CANAÃ - CANAÃ,MONTE NEGRO-RO,RIO JAMARI,Setor Elétrico,Ativo,15408600,1,15,15230000,-10.23030,-63.23110,128.00
371,PCH SANTA CRUZ DE MONTE NEGRO JUSANTE,00362 - CANAÃ - CANAÃ,00362 - CANAÃ - CANAÃ,MONTE NEGRO-RO,RIO JAMARI,Setor Elétrico,Ativo,15408700,1,15,15230000,-10.20560,-63.11140,117.00
372,PCH CANAÃ MONTANTE 2,00362 - CANAÃ - CANAÃ,00362 - CANAÃ - CANAÃ,ARIQUEMES-RO,RIO PARDO OU URURAM,Setor Elétrico,Ativo,15413000,1,15,15230700,-10.25420,-62.98940,134.00
373,PCH CANAÃ MONTANTE 1,00362 - CANAÃ - CANAÃ,00362 - CANAÃ - CANAÃ,ARIQUEMES-RO,RIO QUATRO CACHOEIRAS,Setor Elétrico,Ativo,15414000,1,15,15230710,-10.08310,-62.99750,117.00
374,PCH CANAÃ BARRAMENTO,00362 - CANAÃ - CANAÃ,00362 - CANAÃ - CANAÃ,ARIQUEMES-RO,RIO CANAÃ,Setor Elétrico,Ativo,15417980,1,15,15230050,-10.01940,-63.06060,115.00
375,PCH CANAÃ JUSANTE,00362 - CANAÃ - CANAÃ,00362 - CANAÃ - CANAÃ,ARIQUEMES-RO,RIO CANAÃ,Setor Elétrico,Ativo,15418000,1,15,15230050,-10.01830,-63.06220,108.00
376,PCH JAMARI BARRAMENTO,00362 - CANAÃ - CANAÃ,00362 - CANAÃ - CANAÃ,ARIQUEMES-RO,RIO JAMARI,Setor Elétrico,Ativo,15423980,1,15,15230000,-9.93810,-63.07720,112.34
377,PCH JAMARI JUSANTE 1,00362 - CANAÃ - CANAÃ,00362 - CANAÃ - CANAÃ,ARIQUEMES-RO,RIO JAMARI,Setor Elétrico,Ativo,15424000,1,15,15230000,-9.93470,-63.07560,111.00
378,ARIQUEMES,00082 - CPRM - Cia de Pesquisa de Recursos Minerais,00001 - ANA - Agência Nacional de Águas ,ARIQUEMES-RO,RIO JAMARI,CotaOnline,Manutenção,15430000,1,15,15230000,-9.92560,-63.07140,87.67
379,ARIQUEMES,00082 - CPRM - Cia de Pesquisa de Recursos Minerais,00001 - ANA - Agência Nacional de Águas ,ARIQUEMES-RO,RIO JAMARI,RHN,Ativo,15430000,1,15,15230000,-9.92560,-63.07140,87.67
380,UHE SAMUEL RIO BRANCO,00075 - ELETRONORTE - ELETRONORTE,00075 - ELETRONORTE - ELETRONORTE,ARIQUEMES-RO,RIO BRANCO,Setor Elétrico,Ativo,15430900,1,15,15227700,-9.88670,-62.98470,0.00
381,PCH JAMARI JUSANTE 2,00362 - CANAÃ - CANAÃ,00362 - CANAÃ - CANAÃ,ARIQUEMES-RO,RIO JAMARI,Setor Elétrico,Ativo,15431500,1,15,15230000,-9.71640,-63.12190,107.00
382,UHE SAMUEL RIO MASSANGANA,00075 - ELETRONORTE - ELETRONORTE,00075 - ELETRONORTE - ELETRONORTE,ALTO PARAÍSO-RO,RIO MASSANGANA,Setor Elétrico,Ativo,15431900,1,15,15230900,-9.76030,-63.28810,0.00
383,UHE SAMUEL RIO PRETO DO CRESPO,00075 - ELETRONORTE - ELETRONORTE,00075 - ELETRONORTE - ELETRONORTE,RIO CRESPO-RO,RIO PRETO DO CRESPO,Setor Elétrico,Ativo,15444900,1,15,15231100,-9.55640,-62.95060,0.00
384,UHE SAMUEL BARRAMENTO,00075 - ELETRONORTE - ELETRONORTE,00075 - ELETRONORTE - ELETRONORTE,CANDÉIAS DO JAMARI-RO,RIO JAMARI,Setor Elétrico,Ativo,15459080,1,15,15230000,-8.75250,-63.45500,0.00
385,UHE SAMUEL JUSANTE,00075 - ELETRONORTE - ELETRONORTE,00075 - ELETRONORTE - ELETRONORTE,CANDÉIAS DO JAMARI-RO,RIO JAMARI,Setor Elétrico,Ativo,15459090,1,15,15230000,-8.74690,-63.46360,0.00
386,PROSPERIDADE (EX. FOZ DO JAMARI),00082 - CPRM - Cia de Pesquisa de Recursos Minerais,00001 - ANA - Agência Nacional de Águas ,PORTO VELHO-RO,RIO MADEIRA,RHN,Ativo,15490000,1,15,15200000,-8.45220,-63.51780,40.00
387,UHE SANTO ANTÔNIO SÃO CARLOS,00354 - SANTO ANTONIO - SANTO ANTONIO,00354 - SANTO ANTONIO - SANTO ANTONIO,PORTO VELHO-RO,RIO MADEIRA,Setor Elétrico,Ativo,15490400,1,15,15200000,-8.44440,-63.50810,55.96
388,SANTA ISABEL,00082 - CPRM - Cia de Pesquisa de Recursos Minerais,00001 - ANA - Agência Nacional de Águas ,CANDÉIAS DO JAMARI-RO,RIO CANDEIAS,RHN,Ativo,15550000,1,15,15232000,-8.79860,-63.71060,0.00
389,PCH CACHOEIRA MONTANTE,00351 - JFG - JFG,00351 - JFG - JFG,VILHENA-RO,RIO AVILA,Setor Elétrico,Ativo,15552005,1,15,15240307,-12.50560,-60.47190,404.73
390,PCH CACHOEIRA BARRAMENTO,00351 - JFG - JFG,00351 - JFG - JFG,VILHENA-RO,RIO AVILA,Setor Elétrico,Ativo,15552008,1,15,15240307,-12.50420,-60.47140,404.94
391,UHE RONDON II MONTANTE 2,00158 - ELETROGOES S/A - ELETROGOES S/A,00158 - ELETROGOES S/A - ELETROGOES S/A,PIMENTA BUENO-RO,RIO COMEMORAÇÃO,Setor Elétrico,Ativo,15552540,1,15,15240400,-12.39080,-60.48810,291.50
392,UHE RONDON II MONTANTE 1,00158 - ELETROGOES S/A - ELETROGOES S/A,00158 - ELETROGOES S/A - ELETROGOES S/A,PIMENTA BUENO-RO,RIO COMEMORAÇÃO,Setor Elétrico,Ativo,15552560,1,15,15240400,-12.18530,-60.59970,272.39
393,UHE RONDON II RESERVATÓRIO,00158 - ELETROGOES S/A - ELETROGOES S/A,00158 - ELETROGOES S/A - ELETROGOES S/A,PIMENTA BUENO-RO,RIO COMEMORAÇÃO,Setor Elétrico,Ativo,15552565,1,15,15240400,-12.00420,-60.68390,269.00
394,UHE RONDON II BARRAMENTO,00158 - ELETROGOES S/A - ELETROGOES S/A,00158 - ELETROGOES S/A - ELETROGOES S/A,PIMENTA BUENO-RO,RIO COMEMORAÇÃO,Setor Elétrico,Ativo,15552570,1,15,15240400,-11.99530,-60.69690,272.92
395,UHE RONDON II JUSANTE,00158 - ELETROGOES S/A - ELETROGOES S/A,00158 - ELETROGOES S/A - ELETROGOES S/A,PIMENTA BUENO-RO,RIO COMEMORAÇÃO,Setor Elétrico,Ativo,15552580,1,15,15240400,-11.95920,-60.70220,211.09
396,FAZENDA FLOR DO CAMPO,00082 - CPRM - Cia de Pesquisa de Recursos Minerais,00001 - ANA - Agência Nacional de Águas ,PIMENTA BUENO-RO,RIO COMEMORAÇÃO,RHN,Ativo,15552600,1,15,15240400,-11.74890,-60.86780,185.00
397,CGH MARCOL BARRAMENTO,00587 - MARCOL - MARCOL,00587 - MARCOL - MARCOL,VILHENA-RO,RIO APEDIA  ou PIMENTA BUENO,Setor Elétrico,Ativo,15552800,1,15,15240310,-12.85390,-60.32920,289.00
398,CGH MARCOL JUSANTE,00587 - MARCOL - MARCOL,00587 - MARCOL - MARCOL,VILHENA-RO,RIO APEDIA  ou PIMENTA BUENO,Setor Elétrico,Ativo,15552900,1,15,15240310,-12.85500,-60.33030,373.00
399,PCH CASCATA CHUPINGUAIA MONTANTE,00561 - CHUPINGUAIA - CHUPINGUAIA,00561 - CHUPINGUAIA - CHUPINGUAIA,CHUPINGUAIA-RO,RIO APEDIA  ou PIMENTA BUENO,Setor Elétrico,Ativo,15553100,1,15,15240310,-12.75610,-60.80830,288.00
400,PCH CASCATA CHUPINGUAIA BARRAMENTO,00561 - CHUPINGUAIA - CHUPINGUAIA,00561 - CHUPINGUAIA - CHUPINGUAIA,CHUPINGUAIA-RO,RIO APEDIA  ou PIMENTA BUENO,Setor Elétrico,Ativo,15553150,1,15,15240310,-12.70280,-60.88310,258.00
401,PCH CASCATA CHUPINGUAIA CÂMARA DE CARGA,00561 - CHUPINGUAIA - CHUPINGUAIA,00561 - CHUPINGUAIA - CHUPINGUAIA,CHUPINGUAIA-RO,RIO APEDIA  ou PIMENTA BUENO,Setor Elétrico,Ativo,15553160,1,15,15240310,-12.69280,-60.88080,265.00
402,PCH CASCATA CHUPINGUAIA JUSANTE,00561 - CHUPINGUAIA - CHUPINGUAIA,00561 - CHUPINGUAIA - CHUPINGUAIA,CHUPINGUAIA-RO,RIO APEDIA  ou PIMENTA BUENO,Setor Elétrico,Ativo,15553180,1,15,15240310,-12.69000,-60.88310,269.00
403,PCH CHUPINGUAIA MONTANTE,00668 - USINACACHOEIRA - USINACACHOEIRA,00668 - USINACACHOEIRA - USINACACHOEIRA,CHUPINGUAIA-RO,RIO CHUPINGUAIA,Setor Elétrico,Ativo,15553200,1,15,15240312,-12.59500,-60.88310,300.19
404,PCH CHUPINGUAIA BARRAMENTO,00668 - USINACACHOEIRA - USINACACHOEIRA,00668 - USINACACHOEIRA - USINACACHOEIRA,CHUPINGUAIA-RO,RIO CHUPINGUAIA,Setor Elétrico,Ativo,15553300,1,15,15240312,-12.58810,-60.93390,295.51
405,PCH CHUPINGUAIA JUSANTE,00668 - USINACACHOEIRA - USINACACHOEIRA,00668 - USINACACHOEIRA - USINACACHOEIRA,CHUPINGUAIA-RO,RIO CHUPINGUAIA,Setor Elétrico,Ativo,15553350,1,15,15240312,-12.58690,-60.93530,266.87
406,PCH PRIMAVERA MONTANTE 2,00290 - ELETROPRIMAVERA - ELETROPRIMAVERA,00290 - ELETROPRIMAVERA - ELETROPRIMAVERA,PRIMAVERA DE RONDÔNIA-RO,RIO APEDIA  ou PIMENTA BUENO,Setor Elétrico,Ativo,15553800,1,15,15240310,-12.26780,-61.07560,214.00
407,PCH CESAR FILHO BARRAMENTO,00530 - AMAZONAS - AMAZONAS,00530 - AMAZONAS - AMAZONAS,CHUPINGUAIA-RO,RIO TABOCA,Setor Elétrico,Ativo,15553900,1,15,15240309,-12.27080,-61.18720,276.00
408,PCH CESAR FILHO JUSANTE,00530 - AMAZONAS - AMAZONAS,00530 - AMAZONAS - AMAZONAS,CHUPINGUAIA-RO,RIO TABOCA,Setor Elétrico,Ativo,15553950,1,15,15240309,-12.25940,-61.18890,232.00
409,PCH PRIMAVERA MONTANTE 1,00290 - ELETROPRIMAVERA - ELETROPRIMAVERA,00290 - ELETROPRIMAVERA - ELETROPRIMAVERA,PRIMAVERA DE RONDÔNIA-RO,RIO APEDIA  ou PIMENTA BUENO,Setor Elétrico,Ativo,15555300,1,15,15240310,-11.94750,-61.22000,191.00
410,PCH PRIMAVERA BARRAMENTO,00290 - ELETROPRIMAVERA - ELETROPRIMAVERA,00290 - ELETROPRIMAVERA - ELETROPRIMAVERA,PRIMAVERA DE RONDÔNIA-RO,RIO APEDIA  ou PIMENTA BUENO,Setor Elétrico,Ativo,15555500,1,15,15240310,-11.90390,-61.23310,200.00
411,PCH PRIMAVERA JUSANTE,00290 - ELETROPRIMAVERA - ELETROPRIMAVERA,00290 - ELETROPRIMAVERA - ELETROPRIMAVERA,PRIMAVERA DE RONDÔNIA-RO,RIO APEDIA  ou PIMENTA BUENO,Setor Elétrico,Ativo,15555800,1,15,15240310,-11.90250,-61.23970,194.00
412,PIMENTA BUENO,00082 - CPRM - Cia de Pesquisa de Recursos Minerais,00001 - ANA - Agência Nacional de Águas ,PIMENTA BUENO-RO,RIO APEDIA  ou PIMENTA BUENO,RHN,Ativo,15558000,1,15,15240310,-11.68360,-61.19220,0.00
413,CACOAL,00082 - CPRM - Cia de Pesquisa de Recursos Minerais,00001 - ANA - Agência Nacional de Águas ,CACOAL-RO,RIO PIRARA,RHN,Ativo,15558200,1,15,15240347,-11.44440,-61.44080,160.00
414,FAZENDA APURÚ,00082 - CPRM - Cia de Pesquisa de Recursos Minerais,00001 - ANA - Agência Nacional de Águas ,JI-PARANÁ-RO,RIO URUPA,RHN,Ativo,15558500,1,15,15240425,-11.00170,-62.11720,0.00
415,ESPIGÃO DO OESTE,00082 - CPRM - Cia de Pesquisa de Recursos Minerais,00001 - ANA - Agência Nacional de Águas ,ESPIGÃO D''OESTE-RO,RIO PALMEIRAS,RHN,Ativo,15558700,1,15,15240352,-11.57250,-61.05110,0.00
416,SÍTIO BELA VISTA,00082 - CPRM - Cia de Pesquisa de Recursos Minerais,00001 - ANA - Agência Nacional de Águas ,PIMENTA BUENO-RO,RIO JI-PARANÁ (ou MACHADO),RHN,Ativo,15559000,1,15,15240000,-11.65250,-61.21500,0.00
417,JI-PARANÁ,00082 - CPRM - Cia de Pesquisa de Recursos Minerais,00001 - ANA - Agência Nacional de Águas ,JI-PARANÁ-RO,RIO JI-PARANÁ (ou MACHADO),RHN,Ativo,15560000,1,15,15240000,-10.87360,-61.93560,129.60
418,OURO PRETO DO OESTE,00082 - CPRM - Cia de Pesquisa de Recursos Minerais,00001 - ANA - Agência Nacional de Águas ,OURO PRETO DO OESTE-RO,IGARAPÉ BOA VISTA,RHN,Ativo,15562000,1,15,15240465,-10.77110,-62.25720,0.00
419,JARUARU,00082 - CPRM - Cia de Pesquisa de Recursos Minerais,00001 - ANA - Agência Nacional de Águas ,JARU-RO,RIO JARU,RHN,Ativo,15564000,1,15,15240500,-10.83170,-62.89250,0.00
420,JARU,00082 - CPRM - Cia de Pesquisa de Recursos Minerais,00001 - ANA - Agência Nacional de Águas ,JARU-RO,RIO JARU,CotaOnline,Ativo,15565000,1,15,15240500,-10.44580,-62.46560,133.30
421,JARU,00082 - CPRM - Cia de Pesquisa de Recursos Minerais,00001 - ANA - Agência Nacional de Águas ,JARU-RO,RIO JARU,RHN,Ativo,15565000,1,15,15240500,-10.44580,-62.46560,133.30
422,PIRATININGA,00082 - CPRM - Cia de Pesquisa de Recursos Minerais,00001 - ANA - Agência Nacional de Águas ,MACHADINHO D''OESTE-RO,RIO MACHADINHO,RHN,Ativo,15575000,1,15,15240600,-9.34720,-61.93470,0.00
423,TABAJARA,00082 - CPRM - Cia de Pesquisa de Recursos Minerais,00001 - ANA - Agência Nacional de Águas ,MACHADINHO D''OESTE-RO,RIO JI-PARANÁ (ou MACHADO),RHN,Ativo,15580000,1,15,15240000,-8.93220,-62.05560,68.15
424,MINERAÇÃO JACUNDÁ,00082 - CPRM - Cia de Pesquisa de Recursos Minerais,00001 - ANA - Agência Nacional de Águas ,ITAPUÃ DO OESTE-RO,RIO JACUNDÁ,RHN,Ativo,15590000,1,15,15240800,-9.17890,-62.95220,86.00
425,UHE SANTO ANTÔNIO PAPAGAIO,00354 - SANTO ANTONIO - SANTO ANTONIO,00354 - SANTO ANTONIO - SANTO ANTONIO,PORTO VELHO-RO,RIO MADEIRA,Setor Elétrico,Ativo,15627000,1,15,15200000,-8.18030,-63.09110,53.15
426,UHE SANTO ANTÔNIO HUMAITÁ,00354 - SANTO ANTONIO - SANTO ANTONIO,00354 - SANTO ANTONIO - SANTO ANTONIO,HUMAITÁ-AM,RIO MADEIRA,Setor Elétrico,Ativo,15629000,1,15,15200000,-7.50530,-63.02110,50.44
427,HUMAITÁ,00426 - CONSTRUFAM - CONSTRUFAM,00001 - ANA - Agência Nacional de Águas ,HUMAITÁ-AM,RIO MADEIRA,RHN,Ativo,15630000,1,15,15200000,-7.50280,-63.01830,0.00
428,HUMAITÁ,00426 - CONSTRUFAM - CONSTRUFAM,00001 - ANA - Agência Nacional de Águas ,HUMAITÁ-AM,RIO MADEIRA,CotaOnline,Ativo,15630000,1,15,15200000,-7.50280,-63.01830,0.00
429,MAICI-MIRIM,00426 - CONSTRUFAM - CONSTRUFAM,00001 - ANA - Agência Nacional de Águas ,HUMAITÁ-AM,RIO MAICIMIRIM,RHN,Ativo,15660000,1,15,15250880,-7.63030,-62.65530,0.00
430,PCH JUINA MONTANTE 2,00325 - JURUENA - JURUENA,00325 - JURUENA - JURUENA,JUÍNA-MT,RIO VINTE E UM,Setor Elétrico,Ativo,15710000,1,15,15261250,-11.57780,-59.20580,302.00
431,PCH JUINA MONTANTE 1,00325 - JURUENA - JURUENA,00325 - JURUENA - JURUENA,JUÍNA-MT,RIO CINTA LARGA,Setor Elétrico,Ativo,15720000,1,15,15261280,-11.41310,-59.17030,297.00
432,PCH JUINA BARRAMENTO,00325 - JURUENA - JURUENA,00325 - JURUENA - JURUENA,JUÍNA-MT,RIO ARIPUANÃ,Setor Elétrico,Ativo,15730000,1,15,15260000,-11.31140,-59.22250,271.00
433,PCH JUINA JUSANTE,00325 - JURUENA - JURUENA,00325 - JURUENA - JURUENA,JUÍNA-MT,RIO ARIPUANÃ,Setor Elétrico,Ativo,15740000,1,15,15260000,-11.30970,-59.22360,300.00
434,CGH ARIPUANÃ MONTANTE,00325 - JURUENA - JURUENA,00325 - JURUENA - JURUENA,ARIPUANÃ-MT,RIO ARIPUANÃ,Setor Elétrico,Ativo,15748000,1,15,15260000,-10.32190,-59.46220,227.00
435,UHE DARDANELOS MONTANTE,00531 - ÁGUAS DA PEDRA - ÁGUAS DA PEDRA,00531 - ÁGUAS DA PEDRA - ÁGUAS DA PEDRA,ARIPUANÃ-MT,RIO ARIPUANÃ,Setor Elétrico,Ativo,15750500,1,15,15260000,-10.18310,-59.47190,216.80
436,UHE DARDANELOS BARRAMENTO,00531 - ÁGUAS DA PEDRA - ÁGUAS DA PEDRA,00531 - ÁGUAS DA PEDRA - ÁGUAS DA PEDRA,ARIPUANÃ-MT,RIO ARIPUANÃ,Setor Elétrico,Ativo,15750550,1,15,15260000,-10.16110,-59.46060,218.00
437,UHE DARDANELOS JUSANTE,00531 - ÁGUAS DA PEDRA - ÁGUAS DA PEDRA,00531 - ÁGUAS DA PEDRA - ÁGUAS DA PEDRA,ARIPUANÃ-MT,RIO ARIPUANÃ,Setor Elétrico,Ativo,15750600,1,15,15260000,-10.11000,-59.43720,117.73
438,PCH FAXINAL II MONTANTE,00492 - DARDANELOS - DARDANELOS,00492 - DARDANELOS - DARDANELOS,ARIPUANÃ-MT,RIO ARIPUANÃ,Setor Elétrico,Ativo,15753900,1,15,15260000,-10.19860,-59.46860,218.00
439,PCH FAXINAL I JUSANTE,00492 - DARDANELOS - DARDANELOS,00492 - DARDANELOS - DARDANELOS,ARIPUANÃ-MT,RIO ARIPUANÃ,Setor Elétrico,Ativo,15754000,1,15,15260000,-10.16470,-59.44670,167.00
440,FAZENDA VISTA ALEGRE,00426 - CONSTRUFAM - CONSTRUFAM,00001 - ANA - Agência Nacional de Águas ,NOVO ARIPUANÃ-AM,RIO MADEIRA,RHN,Manutenção,15860000,1,15,15200000,-4.89720,-60.02530,0.00
441,BORBA,00426 - CONSTRUFAM - CONSTRUFAM,00001 - ANA - Agência Nacional de Águas ,BORBA-AM,RIO MADEIRA,CotaOnline,Ativo,15900000,1,15,15200000,-4.38920,-59.59860,0.00
442,SANTARÉM SUCUNDURI,00426 - CONSTRUFAM - CONSTRUFAM,00001 - ANA - Agência Nacional de Águas ,APUÍ-AM,RIO SUCUNDURI,RHN,Ativo,15910000,1,15,15270100,-6.79560,-59.04220,49.00
443,UHE PITINGA MONTANTE,00588 - TABOCA - TABOCA,00588 - TABOCA - TABOCA,PRESIDENTE FIGUEIREDO-AM,RIO PITINGA,Setor Elétrico,Ativo,16018000,1,16,16261000,-0.58500,-59.77610,128.00
444,UHE PITINGA SERRA,00588 - TABOCA - TABOCA,00588 - TABOCA - TABOCA,PRESIDENTE FIGUEIREDO-AM,IGARAPÉ DA SERRA,Setor Elétrico,Ativo,16019000,1,16,16718200,-0.59560,-59.77720,113.00
445,UHE PITINGA BARRAMENTO,00588 - TABOCA - TABOCA,00588 - TABOCA - TABOCA,PRESIDENTE FIGUEIREDO-AM,RIO PITINGA,Setor Elétrico,Ativo,16020000,1,16,16261000,-0.86580,-59.60470,122.00
446,UHE PITINGA JUSANTE,00588 - TABOCA - TABOCA,00588 - TABOCA - TABOCA,PRESIDENTE FIGUEIREDO-AM,RIO PITINGA,Setor Elétrico,Ativo,16020100,1,16,16261000,-0.86610,-59.60110,70.00
447,UHE BALBINA RIO PITINGA,00194 - AMAZONAS - Amazonas Geração e Transmissão de Energia S.A.,00194 - AMAZONAS - Amazonas Geração e Transmissão de Energia S.A.,PRESIDENTE FIGUEIREDO-AM,RIO PITINGA,Setor Elétrico,Ativo,16020200,1,16,16261000,-0.99110,-59.47970,58.00
448,UHE BALBINA RIO PITINGUINHA,00194 - AMAZONAS - Amazonas Geração e Transmissão de Energia S.A.,00194 - AMAZONAS - Amazonas Geração e Transmissão de Energia S.A.,PRESIDENTE FIGUEIREDO-AM,Rio Piting,Setor Elétrico,Ativo,16024900,1,16,16766550,-1.07810,-59.67390,52.00
449,ITACOATIARA,00082 - CPRM - Cia de Pesquisa de Recursos Minerais,00001 - ANA - Agência Nacional de Águas ,ITACOATIARA-AM,RIO SOLIMÕES/AMAZONAS,RHN,Ativo,16030000,1,16,10001000,-3.15390,-58.41140,0.00
450,UHE BALBINA MONTANTE,00194 - AMAZONAS - Amazonas Geração e Transmissão de Energia S.A.,00194 - AMAZONAS - Amazonas Geração e Transmissão de Energia S.A.,PRESIDENTE FIGUEIREDO-AM,RIO UATUMA,Setor Elétrico,Ativo,16062000,1,16,16260000,-1.21060,-60.23470,51.00
451,UHE BALBINA RIO TUCUMARI,00194 - AMAZONAS - Amazonas Geração e Transmissão de Energia S.A.,00194 - AMAZONAS - Amazonas Geração e Transmissão de Energia S.A.,PRESIDENTE FIGUEIREDO-AM,Igarapé Tu,Setor Elétrico,Ativo,16070900,1,16,16260050,-1.54750,-59.41500,51.00
452,UHE BALBINA BARRAMENTO,00194 - AMAZONAS - Amazonas Geração e Transmissão de Energia S.A.,00194 - AMAZONAS - Amazonas Geração e Transmissão de Energia S.A.,PRESIDENTE FIGUEIREDO-AM,RIO UATUMA,Setor Elétrico,Ativo,16070980,1,16,16260000,-1.91610,-59.47560,52.00
453,UHE BALBINA BARRAMENTO CANAL DE FUGA,00194 - AMAZONAS - Amazonas Geração e Transmissão de Energia S.A.,00194 - AMAZONAS - Amazonas Geração e Transmissão de Energia S.A.,PRESIDENTE FIGUEIREDO-AM,RIO UATUMA,Setor Elétrico,Ativo,16070990,1,16,16260000,-1.91610,-59.47440,0.00
454,UHE BALBINA JUSANTE,00194 - AMAZONAS - Amazonas Geração e Transmissão de Energia S.A.,00194 - AMAZONAS - Amazonas Geração e Transmissão de Energia S.A.,PRESIDENTE FIGUEIREDO-AM,RIO UATUMA,Setor Elétrico,Ativo,16090000,1,16,16260000,-1.94940,-59.47670,28.00
455,CACHOEIRA MORENA,00082 - CPRM - Cia de Pesquisa de Recursos Minerais,00001 - ANA - Agência Nacional de Águas ,PRESIDENTE FIGUEIREDO-AM,RIO UATUMA,RHN,Ativo,16100000,1,16,16260000,-2.10610,-59.34420,0.00
456,GARGANTA,00082 - CPRM - Cia de Pesquisa de Recursos Minerais,00001 - ANA - Agência Nacional de Águas ,ORIXIMINÁ-PA,RIO TROMBETAS,RHN,Ativo,16430000,1,16,16700000,-0.99780,-57.04310,0.00
457,ESTIRÃO DA ANGÉLICA,00082 - CPRM - Cia de Pesquisa de Recursos Minerais,00001 - ANA - Agência Nacional de Águas ,ORIXIMINÁ-PA,RIO MAPUERA OU URUCURINA,RHN,Ativo,16500000,1,16,16740000,-1.10060,-57.05690,11.83
458,TABULEIRO  -  REBIO TROMBETAS,00082 - CPRM - Cia de Pesquisa de Recursos Minerais,00001 - ANA - Agência Nacional de Águas ,ORIXIMINÁ-PA,RIO TROMBETAS,RHN,Ativo,16661000,1,16,16700000,-1.37060,-56.85190,0.00
459,VISTA ALEGRE - CONJ 1,00082 - CPRM - Cia de Pesquisa de Recursos Minerais,00001 - ANA - Agência Nacional de Águas ,ORIXIMINÁ-PA,RIO CUMINA / EREPECURU / P.D''OESTE,RHN,Ativo,16800000,1,16,16760000,-1.10140,-56.04000,5.31
460,ORIXIMINÁ,00082 - CPRM - Cia de Pesquisa de Recursos Minerais,00001 - ANA - Agência Nacional de Águas ,ORIXIMINÁ-PA,RIO TROMBETAS,RHN,Ativo,16900000,1,16,16700000,-1.77640,-55.86220,0.00
461,ÓBIDOS,00082 - CPRM - Cia de Pesquisa de Recursos Minerais,00001 - ANA - Agência Nacional de Águas ,ÓBIDOS-PA,RIO SOLIMÕES/AMAZONAS,RHN,Ativo,17050001,1,17,10001000,-1.91920,-55.51310,0.00
462,ÓBIDOS,00082 - CPRM - Cia de Pesquisa de Recursos Minerais,00001 - ANA - Agência Nacional de Águas ,ÓBIDOS-PA,RIO SOLIMÕES/AMAZONAS,CotaOnline,Ativo,17050001,1,17,10001000,-1.91920,-55.51310,0.00
463,PCH SANTA LÚCIA I E II MONTANTE 2,00224 - MAGGI - MAGGI,00224 - MAGGI - MAGGI,CAMPOS DE JÚLIO-MT,RIO JURUENA,Setor Elétrico,Ativo,17090400,1,17,17201000,-13.59560,-59.03250,490.00
464,PCH SANTA LÚCIA I E II MONTANTE,00224 - MAGGI - MAGGI,00224 - MAGGI - MAGGI,SAPEZAL-MT,RIO JURUENA,Setor Elétrico,Ativo,17090500,1,17,17201000,-13.55670,-59.02830,479.00
465,PCH SANTA LÚCIA I E II BARRAMENTO,00224 - MAGGI - MAGGI,00224 - MAGGI - MAGGI,SAPEZAL-MT,RIO JURUENA,Setor Elétrico,Ativo,17090580,1,17,17201000,-13.54360,-59.03030,477.00
466,PCH SANTA LÚCIA I E II JUSANTE,00224 - MAGGI - MAGGI,00224 - MAGGI - MAGGI,SAPEZAL-MT,RIO JURUENA,Setor Elétrico,Ativo,17090600,1,17,17201000,-13.54250,-59.02500,466.00
467,PCH SEGREDO MONTANTE,00745 - SEGREDO - SEGREDO,00745 - SEGREDO - SEGREDO,CAMPOS DE JÚLIO-MT,RIO JURUENA,Setor Elétrico,Ativo,17091030,1,17,17201000,-13.42280,-59.00140,454.00
468,PCH CIDEZAL BARRAMENTO,00485 - CAMPOS DE JULIO - CAMPOS DE JULIO,00485 - CAMPOS DE JULIO - CAMPOS DE JULIO,CAMPOS DE JÚLIO-MT,RIO JURUENA,Setor Elétrico,Ativo,17091040,1,17,17201000,-13.36970,-59.01250,416.00
469,PCH CIDEZAL JUSANTE,00485 - CAMPOS DE JULIO - CAMPOS DE JULIO,00485 - CAMPOS DE JULIO - CAMPOS DE JULIO,CAMPOS DE JÚLIO-MT,RIO JURUENA,Setor Elétrico,Ativo,17091045,1,17,17201000,-13.36890,-59.01470,414.00
470,PCH SAPEZAL BARRAMENTO,00636 - SAPEZAL - SAPEZAL,00636 - SAPEZAL - SAPEZAL,SAPEZAL-MT,RIO JURUENA,Setor Elétrico,Ativo,17091047,1,17,17201000,-13.26640,-59.01940,390.00
471,PCH SAPEZAL JUSANTE,00636 - SAPEZAL - SAPEZAL,00636 - SAPEZAL - SAPEZAL,SAPEZAL-MT,RIO JURUENA,Setor Elétrico,Ativo,17091048,1,17,17201000,-13.26610,-59.01830,387.00
472,PCH SEGREDO BARRAMENTO,00745 - SEGREDO - SEGREDO,00745 - SEGREDO - SEGREDO,CAMPOS DE JÚLIO-MT,RIO JURUENA,Setor Elétrico,Ativo,17091050,1,17,17201000,-13.22390,-59.02670,380.00
473,PCH ILHA COMPRIDA BARRAMENTO,00732 - ILHA COMPRIDA - ILHA COMPRIDA,00732 - ILHA COMPRIDA - ILHA COMPRIDA,SAPEZAL-MT,RIO JURUENA,Setor Elétrico,Ativo,17091080,1,17,17201000,-13.19780,-58.98390,362.00
474,PCH ILHA COMPRIDA JUSANTE,00732 - ILHA COMPRIDA - ILHA COMPRIDA,00732 - ILHA COMPRIDA - ILHA COMPRIDA,SAPEZAL-MT,RIO JURUENA,Setor Elétrico,Ativo,17091090,1,17,17201000,-13.19720,-58.98310,352.00
475,PCH PARECIS BARRAMENTO,00599 - PARECIS - PARECIS,00599 - PARECIS - PARECIS,CAMPOS DE JÚLIO-MT,RIO JURUENA,Setor Elétrico,Ativo,17091093,1,17,17201000,-13.07420,-58.97580,346.00
476,PCH PARECIS JUSANTE,00599 - PARECIS - PARECIS,00599 - PARECIS - PARECIS,CAMPOS DE JÚLIO-MT,RIO JURUENA,Setor Elétrico,Ativo,17091095,1,17,17201000,-13.07190,-58.97640,345.00
477,PCH RONDON BARRAMENTO,00623 - RONDON - RONDON,00623 - RONDON - RONDON,CAMPOS DE JÚLIO-MT,RIO JURUENA,Setor Elétrico,Ativo,17091096,1,17,17201000,-12.90360,-58.91280,296.00
478,PCH RONDON JUSANTE,00623 - RONDON - RONDON,00623 - RONDON - RONDON,CAMPOS DE JÚLIO-MT,RIO JURUENA,Setor Elétrico,Ativo,17091097,1,17,17201000,-12.90000,-58.91360,294.00
479,PCH TELEGRÁFICA BARRAMENTO,00660 - TELEGRÁFICA - TELEGRÁFICA,00660 - TELEGRÁFICA - TELEGRÁFICA,CAMPOS DE JÚLIO-MT,RIO JURUENA,Setor Elétrico,Ativo,17091098,1,17,17201000,-12.84810,-58.92750,289.00
480,PCH TELEGRÁFICA JUSANTE,00660 - TELEGRÁFICA - TELEGRÁFICA,00660 - TELEGRÁFICA - TELEGRÁFICA,CAMPOS DE JÚLIO-MT,RIO JURUENA,Setor Elétrico,Ativo,17091099,1,17,17201000,-12.84500,-58.92920,289.00
481,PCH DIVISA MONTANTE 2,00731 - DIVISA - DIVISA,00731 - DIVISA - DIVISA,CAMPOS DE JÚLIO-MT,RIO FORMIGA,Setor Elétrico,Ativo,17091130,1,17,17210480,-13.49920,-59.18560,495.00
482,PCH DIVISA MONTANTE 1,00731 - DIVISA - DIVISA,00731 - DIVISA - DIVISA,CAMPOS DE JÚLIO-MT,RIO FORMIGA,Setor Elétrico,Ativo,17091150,1,17,17210480,-13.37830,-59.14640,465.00
483,PCH DIVISA BARRAMENTO,00731 - DIVISA - DIVISA,00731 - DIVISA - DIVISA,CAMPOS DE JÚLIO-MT,RIO FORMIGA,Setor Elétrico,Ativo,17091160,1,17,17210480,-13.36310,-59.14250,446.00
484,PCH DIVISA JUSANTE,00731 - DIVISA - DIVISA,00731 - DIVISA - DIVISA,CAMPOS DE JÚLIO-MT,RIO FORMIGA,Setor Elétrico,Ativo,17091170,1,17,17210480,-13.34890,-59.15080,409.00
485,PCH BURITI MONTANTE 2,00235 - FOCKINK - FOCKINK,00235 - FOCKINK - FOCKINK,SAPEZAL-MT,RIO BURITI,Setor Elétrico,Ativo,17091180,1,17,17211600,-13.63170,-58.66420,509.00
486,PCH BURITI MONTANTE 1,00235 - FOCKINK - FOCKINK,00235 - FOCKINK - FOCKINK,SAPEZAL-MT,RIO BURITI,Setor Elétrico,Ativo,17091200,1,17,17211600,-13.42000,-58.60470,480.00
487,PCH JUÍ 117 MONTANTE 2,01096 - JUÍNA - PCH Juína S.A.,01096 - JUÍNA - PCH Juína S.A.,CAMPOS DE JÚLIO-MT,RIO JUINA,Setor Elétrico,Ativo,17091210,1,17,17210250,-13.45720,-59.39030,429.00
488,PCH BURITI BARRAMENTO,00235 - FOCKINK - FOCKINK,00235 - FOCKINK - FOCKINK,SAPEZAL-MT,RIO BURITI,Setor Elétrico,Ativo,17091300,1,17,17211600,-13.40560,-58.59720,464.00
489,PCH JUÍ 117 MONTANTE 1,01096 - JUÍNA - PCH Juína S.A.,01096 - JUÍNA - PCH Juína S.A.,CAMPOS DE JÚLIO-MT,RIO JUINA,Setor Elétrico,Ativo,17091310,1,17,17210250,-13.38560,-59.39220,418.00
490,PCH BURITI JUSANTE,00235 - FOCKINK - FOCKINK,00235 - FOCKINK - FOCKINK,SAPEZAL-MT,RIO BURITI,Setor Elétrico,Ativo,17091400,1,17,17211600,-13.39470,-58.59190,463.00
491,PCH JUÍ 117 JUSANTE,01096 - JUÍNA - PCH Juína S.A.,01096 - JUÍNA - PCH Juína S.A.,CAMPOS DE JÚLIO-MT,RIO JUINA,Setor Elétrico,Ativo,17091410,1,17,17210250,-13.36170,-59.39500,382.00
492,FAZENDA RODIAL,00108 - HYDROCONSULT - HYDROCONSULT,00091 - SEMA-MT - SEMA-MT,SAPEZAL-MT,RIO BURITI,RHN,Ativo,17091450,1,17,17211600,-13.54500,-58.63720,0.00
493,PCH SACRE 2 RIO VERDE,00302 - BCE - BCE,00302 - BCE - BCE,BRASNORTE-MT,RIO VERDE OU TAUIUINA,Setor Elétrico,Ativo,17091560,1,17,17211430,-13.54640,-58.00280,0.00
494,PCH SACRE 2 MONTANTE 2,00302 - BCE - BCE,00302 - BCE - BCE,BRASNORTE-MT,RIO SACRE,Setor Elétrico,Ativo,17091580,1,17,17211400,-13.29250,-58.13470,420.00
495,PCH SACRE 2 MONTANTE 1,00302 - BCE - BCE,00302 - BCE - BCE,BRASNORTE-MT,RIO SACRE,Setor Elétrico,Ativo,17091600,1,17,17211400,-13.02580,-58.18440,394.79
496,PCH SACRE 2 JUSANTE,00302 - BCE - BCE,00302 - BCE - BCE,BRASNORTE-MT,RIO SACRE,Setor Elétrico,Ativo,17092850,1,17,17211400,-12.96000,-58.25080,0.00
497,CAMPO NOVO DO PARECIS,00091 - SEMA-MT - SEMA-MT,00091 - SEMA-MT - SEMA-MT,CAMPO NOVO DO PARECIS-MT,RIO PAPAGAIO,RHN,Ativo,17092960,1,17,17211000,-12.79830,-58.39690,67.00
498,MT-170,00108 - HYDROCONSULT - HYDROCONSULT,00091 - SEMA-MT - SEMA-MT,JUÍNA-MT,RIO JUINA MIRIM,RHN,Ativo,17093010,1,17,17211900,-11.35640,-58.35360,0.00
499,PCH GARGANTA DA JARARACA MONTANTE 1,00274 - RIO DO SANGUE - RIO DO SANGUE,00274 - RIO DO SANGUE - RIO DO SANGUE,CAMPO NOVO DO PARECIS-MT,RIO DO SANGUE,Setor Elétrico,Ativo,17093400,1,17,17212000,-13.86220,-57.78560,454.00
500,PCH GARGANTA DA JARARACA MONTANTE 2,00274 - RIO DO SANGUE - RIO DO SANGUE,00274 - RIO DO SANGUE - RIO DO SANGUE,CAMPO NOVO DO PARECIS-MT,RIO DO SANGUE,Setor Elétrico,Ativo,17093500,1,17,17212000,-13.47330,-57.64170,419.00
501,PCH GARGANTA DA JARARACA BARRAMENTO,00274 - RIO DO SANGUE - RIO DO SANGUE,00274 - RIO DO SANGUE - RIO DO SANGUE,CAMPO NOVO DO PARECIS-MT,RIO DO SANGUE,Setor Elétrico,Ativo,17093600,1,17,17212000,-13.38780,-57.62250,401.00
502,PCH GARGANTA DA JARARACA  JUSANTE,00274 - RIO DO SANGUE - RIO DO SANGUE,00274 - RIO DO SANGUE - RIO DO SANGUE,CAMPO NOVO DO PARECIS-MT,RIO DO SANGUE,Setor Elétrico,Ativo,17093700,1,17,17212000,-13.38670,-57.62440,370.00
503,PCH INXU BARRAMENTO,00770 - INXU - Inxú Geradora e Comercializadora de Energia E...,00770 - INXU - Inxú Geradora e Comercializadora de Energia E...,NOVA MARINGÁ-MT,RIO DO SANGUE,Setor Elétrico,Ativo,17093750,1,17,17212000,-13.35560,-57.61360,363.30
504,PCH BARUITO BARRAMENTO,00184 - GLOBAL - GLOBAL,00184 - GLOBAL - GLOBAL,CAMPO NOVO DO PARECIS-MT,RIO DO SANGUE,Setor Elétrico,Ativo,17094000,1,17,17212000,-13.31970,-57.59780,330.00
505,PCH BARUITO JUSANTE,00184 - GLOBAL - GLOBAL,00184 - GLOBAL - GLOBAL,CAMPO NOVO DO PARECIS-MT,RIO DO SANGUE,Setor Elétrico,Ativo,17094010,1,17,17212000,-13.30140,-57.58810,327.00
506,PCH INXU JUSANTE,00770 - INXU - Inxú Geradora e Comercializadora de Energia E...,00770 - INXU - Inxú Geradora e Comercializadora de Energia E...,NOVA MARINGÁ-MT,RIO DO SANGUE,Setor Elétrico,Ativo,17094050,1,17,17212000,-13.20500,-57.50500,291.17
507,BRASNORTE,00091 - SEMA-MT - SEMA-MT,00091 - SEMA-MT - SEMA-MT,BRASNORTE-MT,RIO DO SANGUE,RHN,Manutenção,17094300,1,17,17212000,-12.09640,-57.88030,0.00
508,PCH BOCAIÚVA MONTANTE,00463 - CRAVARI - SPE CRAVARI,00463 - CRAVARI - SPE CRAVARI,BRASNORTE-MT,RIO CRAVARI,Setor Elétrico,Ativo,17094400,1,17,17212400,-12.57330,-57.88310,314.00
509,PCH BOCAIÚVA BARRAMENTO,00463 - CRAVARI - SPE CRAVARI,00463 - CRAVARI - SPE CRAVARI,BRASNORTE-MT,RIO CRAVARI,Setor Elétrico,Ativo,17094520,1,17,17212400,-12.52940,-57.87830,311.00
510,PCH BOCAIÚVA JUSANTE,00463 - CRAVARI - SPE CRAVARI,00463 - CRAVARI - SPE CRAVARI,BRASNORTE-MT,RIO CRAVARI,Setor Elétrico,Ativo,17094550,1,17,17212400,-12.48220,-57.87440,275.00
511,FAZENDA CACHOEIRA GRANDE,00091 - SEMA-MT - SEMA-MT,00091 - SEMA-MT - SEMA-MT,NOVA MUTUM-MT,RIO ARINOS,RHN,Ativo,17098500,1,17,17220000,-14.21690,-56.03470,0.00
512,FAZENDA CACHOEIRA DE PAU,00108 - HYDROCONSULT - HYDROCONSULT,00091 - SEMA-MT - SEMA-MT,NOVA MUTUM-MT,RIO ARINOS,RHN,Manutenção,17099000,1,17,17220000,-13.83190,-56.41250,0.00
513,FAZENDA MASSAPÉ,00108 - HYDROCONSULT - HYDROCONSULT,00091 - SEMA-MT - SEMA-MT,SÃO JOSÉ DO RIO CLARO-MT,RIO CLARO,RHN,Ativo,17099500,1,17,17224000,-13.50250,-56.61830,0.00
514,JUARA,00091 - SEMA-MT - SEMA-MT,00091 - SEMA-MT - SEMA-MT,JUARA-MT,RIO DOS PEIXES,RHN,Ativo,17122001,1,17,17227200,-10.82310,-57.72720,0.00
515,PCH CANOA QUEBRADA MONTANTE 1,00778 - RVERDE-QUEBRADA - RVERDE-QUEBRADA,00778 - RVERDE-QUEBRADA - RVERDE-QUEBRADA,NOVA MUTUM-MT,RIBEIRÃO GRANDE,Setor Elétrico,Ativo,17228000,1,17,17220700,-13.40170,-55.82690,382.00
516,PCH CANOA QUEBRADA MONTANTE 2,00778 - RVERDE-QUEBRADA - RVERDE-QUEBRADA,00778 - RVERDE-QUEBRADA - RVERDE-QUEBRADA,LUCAS DO RIO VERDE-MT,RIBEIRÃO RANCHÃO,Setor Elétrico,Ativo,17229000,1,17,17242130,-13.29860,-55.91220,383.00
517,PCH CANOA QUEBRADA LUCAS DO RIO VERDE,00778 - RVERDE-QUEBRADA - RVERDE-QUEBRADA,00778 - RVERDE-QUEBRADA - RVERDE-QUEBRADA,LUCAS DO RIO VERDE-MT,RIO VERDE,Setor Elétrico,Ativo,17230000,1,17,17242100,-13.05190,-55.90500,377.00
518,PCH NOVA MUTUM MONTANTE,00637 - AGROENERGÉTICA - Agroenergética Mato Grosso Ltda,00637 - AGROENERGÉTICA - Agroenergética Mato Grosso Ltda,NOVA MUTUM-MT,RIO DOS PATOS,Setor Elétrico,Ativo,17240900,1,17,17223400,-13.75830,-56.05360,395.00
519,PCH NOVA MUTUM BARRRAMENTO,00637 - AGROENERGÉTICA - Agroenergética Mato Grosso Ltda,00637 - AGROENERGÉTICA - Agroenergética Mato Grosso Ltda,NOVA MUTUM-MT,RIO DOS PATOS,Setor Elétrico,Ativo,17250500,1,17,17223400,-13.60360,-56.20060,340.00
520,PCH NOVA MUTUM JUSANTE,00637 - AGROENERGÉTICA - Agroenergética Mato Grosso Ltda,00637 - AGROENERGÉTICA - Agroenergética Mato Grosso Ltda,NOVA MUTUM-MT,RIO DOS PATOS,Setor Elétrico,Ativo,17250550,1,17,17223400,-13.59140,-56.21640,337.00
521,PCH CANOA QUEBRADA BARRAMENTO,00778 - RVERDE-QUEBRADA - RVERDE-QUEBRADA,00778 - RVERDE-QUEBRADA - RVERDE-QUEBRADA,LUCAS DO RIO VERDE-MT,RIO VERDE,Setor Elétrico,Ativo,17260000,1,17,17242100,-12.79390,-56.00830,360.00
522,PCH CANOA QUEBRADA JUSANTE,00778 - RVERDE-QUEBRADA - RVERDE-QUEBRADA,00778 - RVERDE-QUEBRADA - RVERDE-QUEBRADA,LUCAS DO RIO VERDE-MT,RIO VERDE,Setor Elétrico,Ativo,17270000,1,17,17242100,-12.79330,-56.01080,336.00
523,SORRISO,00108 - HYDROCONSULT - HYDROCONSULT,00091 - SEMA-MT - SEMA-MT,SORRISO-MT,RIO DO LIRA,RHN,Ativo,17271100,1,17,17241800,-12.53500,-55.70720,0.00
524,UHE COLIDER PONTE MT-222,00028 - COPEL - COPEL,00028 - COPEL - COPEL,SINOP-MT,RIO TELES PIRES (OU SÃO MANUEL),Setor Elétrico,Ativo,17273100,1,17,17240000,-11.89390,-55.65610,0.00
525,UHE COLIDER PONTE MT-242,00028 - COPEL - COPEL,00028 - COPEL - COPEL,SORRISO-MT,RIO VERDE,Setor Elétrico,Ativo,17275000,1,17,17242100,-12.25890,-55.94940,0.00
526,UHE SINOP RIO VERDE,01017 - SINOP - Companhia Energética Sinop S.A.,01017 - SINOP - Companhia Energética Sinop S.A.,SINOP-MT,RIO VERDE,Setor Elétrico,Ativo,17275100,1,17,17242100,-12.17310,-55.89940,310.05
527,FAZENDA CERON,00108 - HYDROCONSULT - HYDROCONSULT,00091 - SEMA-MT - SEMA-MT,SORRISO-MT,RIO CELESTE,RHN,Ativo,17277000,1,17,17241900,-12.65000,-55.56830,0.00
528,UHE SINOP MONTANTE 1,01017 - SINOP - Companhia Energética Sinop S.A.,01017 - SINOP - Companhia Energética Sinop S.A.,SINOP-MT,RIO TELES PIRES (OU SÃO MANUEL),Setor Elétrico,Ativo,17277300,1,17,17240000,-12.28810,-55.60080,309.36
529,UHE SINOP MONTANTE 2,01017 - SINOP - Companhia Energética Sinop S.A.,01017 - SINOP - Companhia Energética Sinop S.A.,SINOP-MT,RIO TELES PIRES (OU SÃO MANUEL),Setor Elétrico,Ativo,17277500,1,17,17240000,-13.14330,-55.66690,331.25
530,UHE SINOP RESERVATÓRIO,01017 - SINOP - Companhia Energética Sinop S.A.,01017 - SINOP - Companhia Energética Sinop S.A.,SINOP-MT,RIO TELES PIRES (OU SÃO MANUEL),Setor Elétrico,Ativo,17280940,1,17,17240000,-11.41470,-55.52330,279.58
531,UHE SINOP BARRAMENTO,01017 - SINOP - Companhia Energética Sinop S.A.,01017 - SINOP - Companhia Energética Sinop S.A.,SINOP-MT,RIO TELES PIRES (OU SÃO MANUEL),Setor Elétrico,Ativo,17280980,1,17,17240000,-11.27970,-55.44420,276.35
