,NomeEstacao,Operadora,Responsavel,Municipio-UF,NomeRio,Origem,StatusEstacao,CodEstacao,Bacia,SubBacia,CodRio,Latitude,Longitude,Altitude
1,UHE BELO MONTE BR230,00594 - NORTE ENERGIA - Norte Energia S.A,00594 - NORTE ENERGIA - Norte Energia S.A,VITÓRIA DO XINGU-PA,None,Setor Elétrico,Ativo,00351004,1,18,0,-3.12670,-51.79060,33.00
2,UHE BELO MONTE SÍTIO PIMENTAL,00594 - NORTE ENERGIA - Norte Energia S.A,00594 - NORTE ENERGIA - Norte Energia S.A,VITÓRIA DO XINGU-PA,None,Setor Elétrico,Ativo,00351005,1,18,0,-3.37580,-51.94030,110.00
3,UHE BELO MONTE VISTA ALEGRE,00594 - NORTE ENERGIA - Norte Energia S.A,00594 - NORTE ENERGIA - Norte Energia S.A,ALTAMIRA-PA,None,Setor Elétrico,Ativo,00352009,1,18,0,-3.11860,-52.25250,125.00
4,UHE BELO MONTE SÃO FRANCISCO,00594 - NORTE ENERGIA - Norte Energia S.A,00594 - NORTE ENERGIA - Norte Energia S.A,ALTAMIRA-PA,None,Setor Elétrico,Ativo,00352010,1,18,0,-3.25330,-52.34890,124.00
5,UHE BELO MONTE JOARI,00594 - NORTE ENERGIA - Norte Energia S.A,00594 - NORTE ENERGIA - Norte Energia S.A,SÃO FÉLIX DO XINGÚ-PA,None,Setor Elétrico,Ativo,00652002,1,18,0,-6.56030,-52.07640,0.00
6,MÂNCIO LIMA,00380 - SEMA-AC - Secretaria de Meio Ambiente do Estado do Acre,00380 - SEMA-AC - Secretaria de Meio Ambiente do Estado do Acre,MÂNCIO LIMA-AC,None,RHN,Ativo,00772006,1,12,0,-7.59360,-72.92610,216.00
7,CARUARU,00082 - CPRM - Cia de Pesquisa de Recursos Minerais,00001 - ANA - Agência Nacional de Águas ,CARUARU-PE,None,RHN,Ativo,00835106,3,39,0,-8.30280,-36.01080,545.00
8,MORRINHOS,00082 - CPRM - Cia de Pesquisa de Recursos Minerais,00001 - ANA - Agência Nacional de Águas ,ALTO PARNAÍBA-MA,None,RHN,Ativo,00946005,3,34,0,-9.62470,-46.29030,356.00
9,SENA MADUREIRA,00380 - SEMA-AC - Secretaria de Meio Ambiente do Estado do Acre,00380 - SEMA-AC - Secretaria de Meio Ambiente do Estado do Acre,SENA MADUREIRA-AC,None,RHN,Ativo,00968006,1,13,0,-9.05860,-68.65920,190.00
10,SANTA ROSA,00380 - SEMA-AC - Secretaria de Meio Ambiente do Estado do Acre,00380 - SEMA-AC - Secretaria de Meio Ambiente do Estado do Acre,SANTA ROSA DO PURUS-AC,None,RHN,Ativo,00970003,1,13,0,-9.43860,-70.49220,219.00
11,JORDÃO,00380 - SEMA-AC - Secretaria de Meio Ambiente do Estado do Acre,00380 - SEMA-AC - Secretaria de Meio Ambiente do Estado do Acre,JORDÃO-AC,None,RHN,Ativo,00971002,1,12,0,-9.19389,-71.94917,239.00
12,UHE ESTREITO RIO PONTE ALTA,00791 - CONS.CESTE - Consórcio Estreito Energia - CESTE,00791 - CONS.CESTE - Consórcio Estreito Energia - CESTE,PONTE ALTA DO TOCANTINS-TO,None,Setor Elétrico,Ativo,01047009,2,22,0,-10.74610,-47.53720,316.00
13,UHE COLÍDER METEOROLÓGICA,00028 - COPEL - Copel Geração e Transmissão S.A,00028 - COPEL - Copel Geração e Transmissão S.A,COLIDER-MT,None,Setor Elétrico,Ativo,01055005,1,17,0,-10.95470,-55.77810,0.00
14,PCH ÂNGELO CASSOL MONTANTE,00768 - ÂNGELO CASSOL - Hidroelétrica Ângelo Cassol Ltda.,00768 - ÂNGELO CASSOL - Hidroelétrica Ângelo Cassol Ltda.,ALTA FLORESTA D''OESTE-RO,None,Setor Elétrico,Ativo,01162007,1,15,0,-11.92920,-62.08780,292.00
15,PCH MONTE BELO MONTANTE,00307 - ELETROSSOL - Centrais Elétricas Cassol  Ltda.-ELETROSSOL,00307 - ELETROSSOL - Centrais Elétricas Cassol  Ltda.-ELETROSSOL,ALTA FLORESTA D''OESTE-RO,None,Setor Elétrico,Ativo,01162008,1,15,0,-11.95560,-62.17940,316.00
16,PCH SALDANHA PLU,01109 - HIDROLUZ - Hidroluz Centrais Elétricas Ltda.,01109 - HIDROLUZ - Hidroluz Centrais Elétricas Ltda.,ALTA FLORESTA D''OESTE-RO,None,Setor Elétrico,Ativo,01162011,1,15,0,-11.95860,-62.18390,310.00
17,PCH CABIXI MONTANTE,00686 - CASSOL - Cassol Centrais Elétricas Ltda.,00686 - CASSOL - Cassol Centrais Elétricas Ltda.,VILHENA-RO,None,Setor Elétrico,Ativo,01260008,1,15,0,-12.89920,-60.10830,612.00
18,PCH CASCATA CHUPINGUAIA PLU,00561 - CHUPINGUAIA - Hidroelétrica Chupinguaia Ltda.,00561 - CHUPINGUAIA - Hidroelétrica Chupinguaia Ltda.,CHUPINGUAIA-RO,None,Setor Elétrico,Ativo,01260012,1,15,0,-12.85420,-60.85060,267.00
19,"PCH SANTA LUZIA D""""OESTE PLU",00559 - BERGAMIN - Hidroelétrica Bergamin Ltda.,00559 - BERGAMIN - Hidroelétrica Bergamin Ltda.,ALTO ALEGRE DOS PARECIS-RO,None,Setor Elétrico,Ativo,01261002,1,15,0,-12.34330,-61.76920,356.00
20,UHE MANSO MET,00809 - CONS.MANSO - Consórcio UHE Manso,00809 - CONS.MANSO - Consórcio UHE Manso,CHAPADA DOS GUIMARÃES-MT,None,Setor Elétrico,Ativo,01455013,6,66,0,-14.86140,-55.78940,344.00
21,PCH MACHADO MINEIRO PASSAGEM DAS ÉGUAS,00239 - HORIZONTES - Horizontes Energia S.A.,00239 - HORIZONTES - Horizontes Energia S.A.,RIO DO PRADO-MG,None,Setor Elétrico,Ativo,01542030,5,53,0,-15.60920,-42.54170,0.00
22,PZ_FAZ SANTA HELENA,00082 - CPRM - Cia de Pesquisa de Recursos Minerais,00001 - ANA - Agência Nacional de Águas ,JAÍBA-MG,None,RHN,Ativo,01543028,4,44,0,-15.37360,-43.68420,0.00
23,PZ_LINHA II,00082 - CPRM - Cia de Pesquisa de Recursos Minerais,00001 - ANA - Agência Nacional de Águas ,JAÍBA-MG,None,RHN,Ativo,01543029,4,44,0,-15.38470,-43.72920,0.00
24,PZ_PROJ JAÍBA,00082 - CPRM - Cia de Pesquisa de Recursos Minerais,00001 - ANA - Agência Nacional de Águas ,JAÍBA-MG,None,RHN,Ativo,01543030,4,44,0,-15.26080,-43.77500,0.00
25,PZ_FAZENDA MATA VELHA,00082 - CPRM - Cia de Pesquisa de Recursos Minerais,00001 - ANA - Agência Nacional de Águas ,JAÍBA-MG,None,RHN,Ativo,01543031,4,44,0,-15.33280,-43.76860,0.00
26,ANA SEDE (COTA ONLINE),00001 - ANA - Agência Nacional de Águas ,00001 - ANA - Agência Nacional de Águas ,BRASÍLIA-DF,None,CotaOnline,Ativo,01547032,6,60,0,-15.81805,-47.94500,1150.00
27,ANA SEDE - TELEMÉTRICA,00001 - ANA - Agência Nacional de Águas ,00001 - ANA - Agência Nacional de Águas ,BRASÍLIA-DF,None,RHN,Ativo,01547079,6,60,0,-15.81810,-47.94500,1150.00
28,UHE SERRA DA MESA BARRO ALTO,00069 - FURNAS - Furnas Centrais Elétricas S.A.,00069 - FURNAS - Furnas Centrais Elétricas S.A.,BARRO ALTO-GO,None,Setor Elétrico,Ativo,01548050,2,20,0,-15.11750,-48.92420,584.00
29,PZ_BOM JARDIM,00082 - CPRM - Cia de Pesquisa de Recursos Minerais,00001 - ANA - Agência Nacional de Águas ,SÃO JOÃO DA PONTE-MG,None,RHN,Ativo,01643045,4,44,0,-16.11080,-43.85310,0.00
30,PZ_BARRA DO RIO VERDE,00082 - CPRM - Cia de Pesquisa de Recursos Minerais,00001 - ANA - Agência Nacional de Águas ,MONTES CLAROS-MG,None,RHN,Ativo,01643046,4,44,0,-16.17610,-43.77420,0.00
31,PZ_PELG,00082 - CPRM - Cia de Pesquisa de Recursos Minerais,00001 - ANA - Agência Nacional de Águas ,MONTES CLAROS-MG,None,RHN,Ativo,01643047,4,44,0,-16.70560,-43.76720,0.00
32,PZ_ETE VIEIRA,00082 - CPRM - Cia de Pesquisa de Recursos Minerais,00001 - ANA - Agência Nacional de Águas ,MONTES CLAROS-MG,None,RHN,Ativo,01643048,4,44,0,-16.68720,-43.85440,0.00
33,UHE BATALHA CRISTALINA,00069 - FURNAS - Furnas Centrais Elétricas S.A.,00069 - FURNAS - Furnas Centrais Elétricas S.A.,CRISTALINA-GO,None,Setor Elétrico,Ativo,01647002,6,60,0,-16.78810,-47.60330,1173.00
34,UHE BATALHA FAZENDA BURITI,00069 - FURNAS - Furnas Centrais Elétricas S.A.,00069 - FURNAS - Furnas Centrais Elétricas S.A.,CRISTALINA-GO,None,Setor Elétrico,Ativo,01647023,6,60,0,-16.96830,-47.34190,881.00
35,UHE BATALHA SÍTIO OLHO D' ÁGUA,00069 - FURNAS - Furnas Centrais Elétricas S.A.,00069 - FURNAS - Furnas Centrais Elétricas S.A.,UNAÍ-MG,None,Setor Elétrico,Ativo,01647024,6,60,0,-16.38920,-47.15080,974.00
36,LASSANCE,00082 - CPRM - Cia de Pesquisa de Recursos Minerais,00001 - ANA - Agência Nacional de Águas ,LASSANCE-MG,None,RHN,Ativo,01744010,4,41,0,-17.89000,-44.57670,536.00
37,UHE SERRA DO FACÃO CLIMATOLÓGICA,00334 - SERRA DO FACÃO - Serra do Facão Energia S.A.,00334 - SERRA DO FACÃO - Serra do Facão Energia S.A.,CATALÃO-GO,None,Setor Elétrico,Ativo,01747012,6,60,0,-17.87720,-47.70140,0.00
38,UHE ITUMBIARA PIRACANJUBA,00069 - FURNAS - Furnas Centrais Elétricas S.A.,00069 - FURNAS - Furnas Centrais Elétricas S.A.,PIRACANJUBA-GO,None,Setor Elétrico,Ativo,01749015,6,60,0,-17.31060,-49.02190,730.00
39,PCH TRONQUEIRAS SE GOVERNADOR VALADARES,01061 - CEMIG LESTE - CEMIG  Geração Leste S.A.,01061 - CEMIG LESTE - CEMIG  Geração Leste S.A.,GOVERNADOR VALADARES-MG,None,Setor Elétrico,Ativo,01841029,5,56,0,-18.85500,-41.96000,0.00
40,UHE ITUMBIARA TUPACIGUARA,00069 - FURNAS - Furnas Centrais Elétricas S.A.,00069 - FURNAS - Furnas Centrais Elétricas S.A.,TUPACIGUARA-MG,None,Setor Elétrico,Ativo,01848055,6,60,0,-18.62170,-48.68470,917.00
41,UHE ITUMBIARA ÁGUA LIMPA,00069 - FURNAS - Furnas Centrais Elétricas S.A.,00069 - FURNAS - Furnas Centrais Elétricas S.A.,ÁGUA LIMPA-GO,None,Setor Elétrico,Ativo,01848059,6,60,0,-18.07470,-48.75640,711.00
42,UHE ITUMBIARA FAZENDA ROSAS,00069 - FURNAS - Furnas Centrais Elétricas S.A.,00069 - FURNAS - Furnas Centrais Elétricas S.A.,ANHANGUERA-GO,None,Setor Elétrico,Ativo,01848060,6,60,0,-18.32330,-48.22640,0.00
43,CGH SANTA LUZIA SE ITUIUTABA,00023 - CEMIG - CEMIG Geração e Transmissão S.A,00023 - CEMIG - CEMIG Geração e Transmissão S.A,ITUIUTABA-MG,None,Setor Elétrico,Ativo,01849035,6,60,0,-18.96360,-49.44830,0.00
44,UHE SÁ CARVALHO SE MESQUITA,00624 - SÁ CARVALHO - Sá Carvalho S.A,00624 - SÁ CARVALHO - Sá Carvalho S.A,MESQUITA-MG,None,Setor Elétrico,Ativo,01942033,5,56,0,-19.41690,-42.54920,0.00
45,UHE SÁ CARVALHO JUSANTE,00624 - SÁ CARVALHO - Sá Carvalho S.A,00624 - SÁ CARVALHO - Sá Carvalho S.A,ANTÔNIO DIAS-MG,None,Setor Elétrico,Ativo,01942049,5,56,0,-19.63470,-42.80610,0.00
46,CGH SANTA LUZIA SE SERRA DO SALITRE,00023 - CEMIG - CEMIG Geração e Transmissão S.A,00023 - CEMIG - CEMIG Geração e Transmissão S.A,SERRA DO SALITRE-MG,None,Setor Elétrico,Ativo,01946024,6,60,0,-19.11830,-46.68170,0.00
47,PCH MARTINS SE UBERABA,01071 - CEMIG OESTE - CEMIG Geração Oeste S.A.,01071 - CEMIG OESTE - CEMIG Geração Oeste S.A.,UBERABA-MG,None,Setor Elétrico,Ativo,01947032,6,61,0,-19.71970,-47.91420,0.00
48,ROSÁRIO DA LIMEIRA,00101 - IGAM-MG - Instituto Mineiro de Gestão das Águas,00101 - IGAM-MG - Instituto Mineiro de Gestão das Águas,ROSÁRIO DA LIMEIRA-MG,None,RHN,Ativo,02042051,5,58,0,-20.97888,-42.50944,0.00
49,CGH NOVA PONTE QUEIMADA II BARRAMENTO,01132 - LIMPA - Energia Limpa Participações Ltda.,01132 - LIMPA - Energia Limpa Participações Ltda.,RIO CASCA-MG,None,Setor Elétrico,Ativo,02042436,5,56,0,-20.27690,-42.65170,350.00
50,CONSELHEIRO LAFAIETE,00082 - CPRM - Cia de Pesquisa de Recursos Minerais,00001 - ANA - Agência Nacional de Águas ,CONSELHEIRO LAFAIETE-MG,None,RHN,Ativo,02043005,4,40,0,-20.62500,-43.75360,996.00
51,UHE PETI SÃO GONÇALO DO RIO ACIMA,01061 - CEMIG LESTE - CEMIG  Geração Leste S.A.,01061 - CEMIG LESTE - CEMIG  Geração Leste S.A.,BARÃO DE COCAIS-MG,None,Setor Elétrico,Ativo,02043063,5,56,0,-20.02530,-43.53920,0.00
52,UHE CAJURU FAZENDA CAMPO GRANDE,01071 - CEMIG OESTE - CEMIG Geração Oeste S.A.,01071 - CEMIG OESTE - CEMIG Geração Oeste S.A.,PASSA TEMPO-MG,None,Setor Elétrico,Ativo,02044063,4,40,0,-20.62610,-44.43780,0.00
53,LAGOA DOURADA,00101 - IGAM-MG - Instituto Mineiro de Gestão das Águas,00101 - IGAM-MG - Instituto Mineiro de Gestão das Águas,LAGOA DOURADA-MG,RIO ACRE,RHN,Ativo,02044079,4,40,13330000,-20.91027,-44.07750,0.00
54,CGH ANIL SE PIMENTA,00023 - CEMIG - CEMIG Geração e Transmissão S.A,00023 - CEMIG - CEMIG Geração e Transmissão S.A,PIMENTA-MG,None,Setor Elétrico,Ativo,02045031,6,61,0,-20.46830,-45.79310,0.00
55,UHE MARECHAL MASCARENHAS DE MORAES ITAÚ DE MINAS,00069 - FURNAS - Furnas Centrais Elétricas S.A.,00069 - FURNAS - Furnas Centrais Elétricas S.A.,ITAÚ DE MINAS-MG,None,Setor Elétrico,Ativo,02046031,6,61,0,-20.74890,-46.74360,0.00
56,UHE LUIZ CARLOS BARRETO DE CARVALHO MET,00069 - FURNAS - Furnas Centrais Elétricas S.A.,00069 - FURNAS - Furnas Centrais Elétricas S.A.,PEDREGULHO-SP,None,Setor Elétrico,Ativo,02047115,6,61,0,-20.15830,-47.27810,725.00
57,UHE PORTO COLÔMBIA PLU,00069 - FURNAS - Furnas Centrais Elétricas S.A.,00069 - FURNAS - Furnas Centrais Elétricas S.A.,PLANURA-MG,None,Setor Elétrico,Ativo,02048096,6,61,0,-20.11920,-48.57310,0.00
58,UHE MARIMBONDO MET,00069 - FURNAS - Furnas Centrais Elétricas S.A.,00069 - FURNAS - Furnas Centrais Elétricas S.A.,FRONTEIRA-MG,None,Setor Elétrico,Ativo,02049070,6,61,0,-20.29250,-49.19670,454.00
59,SÃO SEBASTIÃO DA VARGEM ALEGRE,00101 - IGAM-MG - Instituto Mineiro de Gestão das Águas,00101 - IGAM-MG - Instituto Mineiro de Gestão das Águas,SÃO SEBASTIÃO DA VARGEM ALEGRE-MG,None,RHN,Ativo,02142096,5,58,0,-21.07250,-42.63694,0.00
60,MIRAI,00101 - IGAM-MG - Instituto Mineiro de Gestão das Águas,00101 - IGAM-MG - Instituto Mineiro de Gestão das Águas,MIRAÍ-MG,None,RHN,Ativo,02142097,5,58,0,-21.19472,-42.61583,0.00
61,PCH MARMELOS SE JUIZ DE FORA,01060 - CEMIG SUL - CEMIG Geração Sul S.A.,01060 - CEMIG SUL - CEMIG Geração Sul S.A.,JUIZ DE FORA-MG,None,Setor Elétrico,Ativo,02143064,5,58,0,-21.71140,-43.40310,0.00
62,PCH MARMELOS CHAPÉU D'UVAS,01060 - CEMIG SUL - CEMIG Geração Sul S.A.,01060 - CEMIG SUL - CEMIG Geração Sul S.A.,JUIZ DE FORA-MG,None,Setor Elétrico,Ativo,02143162,5,58,0,-21.58530,-43.52720,746.00
63,UHE LUIZ CARLOS BARRETO DE CARVALHO BOA ESPERANÇA,00069 - FURNAS - Furnas Centrais Elétricas S.A.,00069 - FURNAS - Furnas Centrais Elétricas S.A.,BOA ESPERANÇA-MG,None,Setor Elétrico,Ativo,02145048,6,61,0,-21.08780,-45.56860,772.00
64,PCH WALTER ROSSI (ANTAS II)  BARRAGEM DO CIPÓ,00232 - DMEDISTR - DME Distribuição S/A,00232 - DMEDISTR - DME Distribuição S/A,POÇOS DE CALDAS-MG,None,Setor Elétrico,Ativo,02146112,6,61,0,-21.85280,-46.60940,1268.00
65,FAZENDA DAS FLORES,00010 - DAEE-SP - Departamento de Águas e Energia Elétrica do E...,00010 - DAEE-SP - Departamento de Águas e Energia Elétrica do E...,CRAVINHOS-SP,None,RHN,Ativo,02147012,6,61,0,-21.33330,-47.78330,720.00
66,FAZENDA RESFRIADO,00010 - DAEE-SP - Departamento de Águas e Energia Elétrica do E...,00010 - DAEE-SP - Departamento de Águas e Energia Elétrica do E...,RIBEIRÃO PRETO-SP,None,RHN,Ativo,02147013,6,61,0,-21.30000,-47.93330,590.00
67,CRAVINHOS,00010 - DAEE-SP - Departamento de Águas e Energia Elétrica do E...,00010 - DAEE-SP - Departamento de Águas e Energia Elétrica do E...,CRAVINHOS-SP,None,RHN,Ativo,02147014,6,61,0,-21.36670,-47.71670,700.00
68,UHE SIMPLÍCIO FAZENDA SANTA MÔNICA,00069 - FURNAS - Furnas Centrais Elétricas S.A.,00069 - FURNAS - Furnas Centrais Elétricas S.A.,VALENÇA-RJ,None,Setor Elétrico,Ativo,02243507,5,58,0,-22.36080,-43.69780,0.00
69,UHE SIMPLÍCIO METEOROLÓGICA,00069 - FURNAS - Furnas Centrais Elétricas S.A.,00069 - FURNAS - Furnas Centrais Elétricas S.A.,SAPUCAIA-RJ,None,Setor Elétrico,Ativo,02243508,5,58,0,-22.03890,-43.00060,414.00
70,UEL VIGÁRIO PASSO TRÊS,00008 - LIGHT - Light Energia S.A,00008 - LIGHT - Light Energia S.A,RIO CLARO-RJ,None,Setor Elétrico,Ativo,02244107,5,58,0,-22.69250,-44.00690,450.00
71,UHE FUNIL RESENDE AEROPORTO,00069 - FURNAS - Furnas Centrais Elétricas S.A.,00069 - FURNAS - Furnas Centrais Elétricas S.A.,RESENDE-RJ,None,Setor Elétrico,Ativo,02244161,5,58,0,-22.47560,-44.47360,0.00
72,UHE FUNIL GUARATINGUETÁ,00069 - FURNAS - Furnas Centrais Elétricas S.A.,00069 - FURNAS - Furnas Centrais Elétricas S.A.,GUARATINGUETÁ-SP,None,Setor Elétrico,Ativo,02245032,5,58,0,-22.80890,-45.20080,558.00
73,UHE SALTO GRANDE FAZENDA SÃO PAULO,00131 - PARANAPANEMA - Rio Paranapanema Energia S.A,00131 - PARANAPANEMA - Rio Paranapanema Energia S.A,ÁGUAS DE SANTA BARBARA-SP,None,Setor Elétrico,Ativo,02249113,6,64,0,-22.76190,-49.24310,643.00
74,UHE CANOAS I CÂNDIDO MOTTA,00800 - CONS.CANOAS - Consórcio UHE Canoas,00800 - CONS.CANOAS - Consórcio UHE Canoas,PLATINA-SP,None,Setor Elétrico,Ativo,02250097,6,64,0,-22.75330,-50.46940,437.00
75,UHE CANOAS I PLATINA,00800 - CONS.CANOAS - Consórcio UHE Canoas,00800 - CONS.CANOAS - Consórcio UHE Canoas,PLATINA-SP,None,Setor Elétrico,Ativo,02250098,6,64,0,-22.60810,-50.18080,472.00
76,UHE CANOAS II IBIRAREMA,00800 - CONS.CANOAS - Consórcio UHE Canoas,00800 - CONS.CANOAS - Consórcio UHE Canoas,IBIRAREMA-SP,None,Setor Elétrico,Ativo,02250099,6,64,0,-22.86640,-50.09360,432.00
77,UHE CANOAS II PALMITAL,00800 - CONS.CANOAS - Consórcio UHE Canoas,00800 - CONS.CANOAS - Consórcio UHE Canoas,PALMITAL-SP,None,Setor Elétrico,Ativo,02250100,6,64,0,-22.72220,-50.13580,530.00
78,UHE TAQUARUÇU ANHUMAS,00131 - PARANAPANEMA - Rio Paranapanema Energia S.A,00131 - PARANAPANEMA - Rio Paranapanema Energia S.A,ANHUMAS-SP,None,Setor Elétrico,Ativo,02251080,6,64,0,-22.29970,-51.43030,451.00
79,UHE TAQUARUÇU CENTENÁRIO DO SUL,00131 - PARANAPANEMA - Rio Paranapanema Energia S.A,00131 - PARANAPANEMA - Rio Paranapanema Energia S.A,CENTENÁRIO DO SUL-PR,None,Setor Elétrico,Ativo,02251081,6,64,0,-22.83170,-51.60280,514.00
80,PCH PORTO GÓES BOM JARDIM,00084 - EMAE - EMAE,00084 - EMAE - EMAE,JUNDIAÍ-SP,None,Setor Elétrico,Ativo,02346469,6,62,0,-23.15250,-46.99000,732.55
81,UHE JURUMIRIM BREJAUVA,00131 - PARANAPANEMA - Rio Paranapanema Energia S.A,00131 - PARANAPANEMA - Rio Paranapanema Energia S.A,SÃO MIGUEL ARCANJO-SP,None,Setor Elétrico,Ativo,02347192,6,64,0,-23.78560,-47.63560,745.00
82,UHE CANOAS I BAIRRO MORRO CAVADO,00800 - CONS.CANOAS - Consórcio UHE Canoas,00800 - CONS.CANOAS - Consórcio UHE Canoas,BURI-SP,None,Setor Elétrico,Ativo,02348090,6,64,0,-23.71220,-48.70420,666.00
83,UHE CANOAS II FAZENDA TRÊS LAGOAS,00800 - CONS.CANOAS - Consórcio UHE Canoas,00800 - CONS.CANOAS - Consórcio UHE Canoas,ANGATUBA-SP,None,Setor Elétrico,Ativo,02348092,6,64,0,-23.42830,-48.44000,712.00
84,UHE CHAVANTES FAZENDA SÃO JOÃO,00131 - PARANAPANEMA - Rio Paranapanema Energia S.A,00131 - PARANAPANEMA - Rio Paranapanema Energia S.A,RIVERSUL-SP,None,Setor Elétrico,Ativo,02349076,6,64,0,-23.85170,-49.39500,659.80
85,PCH APUCARANINHA MONTANTE 2,00028 - COPEL - Copel Geração e Transmissão S.A,00028 - COPEL - Copel Geração e Transmissão S.A,APUCARANA-PR,None,Setor Elétrico,Ativo,02351080,6,64,0,-23.51750,-51.53030,0.00
86,UHE CANOAS I BAIRRO CACHIMBA,00800 - CONS.CANOAS - Consórcio UHE Canoas,00800 - CONS.CANOAS - Consórcio UHE Canoas,APIAÍ-SP,None,Setor Elétrico,Ativo,02448071,6,64,0,-24.48310,-48.77690,880.00
87,UHE CANOAS I BAIRRO CANTAGALO,00800 - CONS.CANOAS - Consórcio UHE Canoas,00800 - CONS.CANOAS - Consórcio UHE Canoas,ITAPEVA-SP,None,Setor Elétrico,Ativo,02448072,6,64,0,-24.09360,-48.63890,950.00
88,UHE CANOAS II CAPÃO LIMPO,00800 - CONS.CANOAS - Consórcio UHE Canoas,00800 - CONS.CANOAS - Consórcio UHE Canoas,CAPÃO BONITO-SP,None,Setor Elétrico,Ativo,02448073,6,64,0,-24.07140,-48.18250,635.00
89,UHE CHAVANTES BERTANHOLI,00131 - PARANAPANEMA - Rio Paranapanema Energia S.A,00131 - PARANAPANEMA - Rio Paranapanema Energia S.A,ITARARÉ-SP,None,Setor Elétrico,Ativo,02449067,6,64,0,-24.09030,-49.32920,725.00
90,BOM JARDIM MONTANTE,00052 - IAT-PR - Instituto Água e Terra do Paraná,00052 - IAT-PR - Instituto Água e Terra do Paraná,TIBAGI-PR,None,RHN,Ativo,02450009,6,64,0,-24.67780,-50.48440,750.00
91,UHE ITAIPU MANOEL RIBAS,00090 - ITAIPU - Itaipu  Binacional,00090 - ITAIPU - Itaipu  Binacional,MANOEL RIBAS-PR,None,Setor Elétrico,Ativo,02451057,6,64,0,-24.51330,-51.66500,878.00
92,UHE ITAIPU SANTA MARIA,00090 - ITAIPU - Itaipu  Binacional,00090 - ITAIPU - Itaipu  Binacional,SANTA MARIA DO OESTE-PR,None,Setor Elétrico,Ativo,02451059,6,64,0,-24.93330,-51.88330,550.00
93,UHE ITAIPU UBIRATÃ,00090 - ITAIPU - Itaipu  Binacional,00090 - ITAIPU - Itaipu  Binacional,UBIRATÃ-PR,None,Setor Elétrico,Ativo,02452062,6,64,0,-24.55330,-52.98580,530.00
94,CGH MARUMBI GUARATUBA,00028 - COPEL - Copel Geração e Transmissão S.A,00028 - COPEL - Copel Geração e Transmissão S.A,GUARATUBA-PR,None,Setor Elétrico,Ativo,02548079,8,82,0,-25.84530,-48.58030,0.00
95,CGH MARUMBI ANTONINA,00028 - COPEL - Copel Geração e Transmissão S.A,00028 - COPEL - Copel Geração e Transmissão S.A,ANTONINA-PR,None,Setor Elétrico,Ativo,02548098,8,82,0,-25.24330,-48.75220,0.00
96,ENTREMAR,00052 - IAT-PR - Instituto Água e Terra do Paraná,00052 - IAT-PR - Instituto Água e Terra do Paraná,PIRAQUARA-PR,None,RHN,Ativo,02549113,6,65,0,-25.48920,-49.04080,900.00
97,UHE SALTO SANTIAGO GUARAPUAVA,00112 - ENGIE - Engie Brasil Energia S.A.,00112 - ENGIE - Engie Brasil Energia S.A.,GUARAPUAVA-PR,None,Setor Elétrico,Ativo,02551015,6,65,0,-25.36560,-51.49560,1051.00
98,UHE SALTO SANTIAGO GOIOXIM,00112 - ENGIE - Engie Brasil Energia S.A.,00112 - ENGIE - Engie Brasil Energia S.A.,GUARAPUAVA-PR,None,Setor Elétrico,Ativo,02551063,6,65,0,-25.24060,-51.92750,917.00
99,UHE SALTO OSÓRIO PINHÃO,00112 - ENGIE - Engie Brasil Energia S.A.,00112 - ENGIE - Engie Brasil Energia S.A.,PINHÃO-PR,None,Setor Elétrico,Ativo,02551069,6,65,0,-25.66170,-51.66220,1070.00
100,UHE FUNDÃO GUARAPUAVA,00289 - ELEJOR - Centrais Elétricas do Rio Jordão S.A-ELEJOR,00289 - ELEJOR - Centrais Elétricas do Rio Jordão S.A-ELEJOR,GUARAPUAVA-PR,None,Setor Elétrico,Ativo,02551070,6,65,0,-25.38470,-51.49390,0.00
101,UHE FUNDÃO PINHÃO,00289 - ELEJOR - Centrais Elétricas do Rio Jordão S.A-ELEJOR,00289 - ELEJOR - Centrais Elétricas do Rio Jordão S.A-ELEJOR,PINHÃO-PR,None,Setor Elétrico,Ativo,02551071,6,65,0,-25.64920,-51.96250,0.00
102,UHE SANTA CLARA ENTRE RIOS,00289 - ELEJOR - Centrais Elétricas do Rio Jordão S.A-ELEJOR,00289 - ELEJOR - Centrais Elétricas do Rio Jordão S.A-ELEJOR,GUARAPUAVA-PR,None,Setor Elétrico,Ativo,02551072,6,65,0,-25.54580,-51.48830,0.00
103,UHE SALTO OSÓRIO LARANJEIRAS DO SUL,00112 - ENGIE - Engie Brasil Energia S.A.,00112 - ENGIE - Engie Brasil Energia S.A.,LARANJEIRAS DO SUL-PR,None,Setor Elétrico,Ativo,02552009,6,65,0,-25.39780,-52.43500,810.00
104,UHE SALTO SANTIAGO CHOPINZINHO PLU,00112 - ENGIE - Engie Brasil Energia S.A.,00112 - ENGIE - Engie Brasil Energia S.A.,CHOPINZINHO-PR,None,Setor Elétrico,Ativo,02552030,6,65,0,-25.86000,-52.52690,738.00
105,UHE SALTO SANTIAGO FOZ DO JORDÃO,00112 - ENGIE - Engie Brasil Energia S.A.,00112 - ENGIE - Engie Brasil Energia S.A.,FOZ DO JORDÃO-PR,None,Setor Elétrico,Ativo,02552055,6,65,0,-25.77470,-52.11390,615.00
106,UHE ITÁ CAÇADOR PLU,00804 - CONS.ITÁ - Consórcio UHE Itá,00804 - CONS.ITÁ - Consórcio UHE Itá,CAÇADOR-SC,None,Setor Elétrico,Ativo,02650035,7,72,0,-26.81920,-50.98560,960.00
107,COOPERATIVA TRITÍCOLA SANANDUVA,00266 - SEMA-RS - SEMA-RS,00266 - SEMA-RS - SEMA-RS,SANANDUVA-RS,None,RHN,Ativo,02751063,7,72,0,-27.95890,-51.79560,0.00
108,PARQUE DE EVENTOS PINHAL DA SERRA,00266 - SEMA-RS - SEMA-RS,00266 - SEMA-RS - SEMA-RS,PINHAL DA SERRA-RS,None,RHN,Ativo,02751066,7,70,0,-27.87920,-51.17690,0.00
109,UHE FOZ DO CHAPECÓ NONOAI,00442 - FOZ DO CHAPECÓ - Foz do Chapecó Energia S.A,00442 - FOZ DO CHAPECÓ - Foz do Chapecó Energia S.A,NONOAI-RS,None,Setor Elétrico,Ativo,02752032,7,73,0,-27.33250,-52.78720,594.00
110,UHE ITÁ ERECHIM PLU,00804 - CONS.ITÁ - Consórcio UHE Itá,00804 - CONS.ITÁ - Consórcio UHE Itá,ERECHIM-RS,None,Setor Elétrico,Ativo,02752035,7,73,0,-27.65750,-52.32030,767.00
111,COOPAC CONSTANTINA,00266 - SEMA-RS - SEMA-RS,00266 - SEMA-RS - SEMA-RS,CONSTANTINA-RS,None,RHN,Ativo,02752060,7,74,0,-27.72530,-52.97810,0.00
112,AGROP. PAPAGAIO CHARÕA SARANDI,00266 - SEMA-RS - SEMA-RS,00266 - SEMA-RS - SEMA-RS,SARANDI-RS,None,RHN,Ativo,02752061,7,74,0,-27.92530,-52.82000,0.00
113,PREFEITURA BARRA DO RIO AZUL,00266 - SEMA-RS - SEMA-RS,00266 - SEMA-RS - SEMA-RS,BARRA DO RIO AZUL-RS,None,RHN,Ativo,02752062,7,73,0,-27.41000,-52.41560,0.00
114,UHE FOZ DO CHAPECÓ CAIBI,00442 - FOZ DO CHAPECÓ - Foz do Chapecó Energia S.A,00442 - FOZ DO CHAPECÓ - Foz do Chapecó Energia S.A,CAIBI-SC,None,Setor Elétrico,Ativo,02753029,7,74,0,-27.07470,-53.23920,369.00
115,PREFEITURA CERRO GRANDE,00266 - SEMA-RS - SEMA-RS,00266 - SEMA-RS - SEMA-RS,CERRO GRANDE-RS,None,RHN,Ativo,02753053,7,74,0,-27.61030,-53.16670,0.00
116,CGH RIO FORTALEZA BARRAMENTO,00179 - CRELUZ G - CRELUZ G,00179 - CRELUZ G - CRELUZ G,ERVAL SECO-RS,None,Setor Elétrico,Ativo,02753057,7,74,0,-27.47360,-53.45780,341.00
117,CGH LINHA GRANJA VELHA BARRAMENTO,00179 - CRELUZ G - CRELUZ G,00179 - CRELUZ G - CRELUZ G,TAQUARUÇU DO SUL-RS,None,Setor Elétrico,Ativo,02753058,7,74,0,-27.42670,-53.54000,277.00
118,CGH CARLOS BEVILÁCQUA BARRAMENTO,00179 - CRELUZ G - CRELUZ G,00179 - CRELUZ G - CRELUZ G,SEBERI-RS,None,Setor Elétrico,Ativo,02753059,7,74,0,-27.60280,-53.39170,468.00
119,CGH CAA YARI BARRAMENTO,00179 - CRELUZ G - CRELUZ G,00179 - CRELUZ G - CRELUZ G,CRISSIUMAL-RS,None,Setor Elétrico,Ativo,02754026,7,74,0,-27.42860,-54.12170,184.00
120,POUSADA APARADOS DA SERRA S.J. AUSENTES,00266 - SEMA-RS - SEMA-RS,00266 - SEMA-RS - SEMA-RS,SÃO JOSÉ DOS AUSENTES-RS,None,RHN,Ativo,02849066,7,70,0,-28.60640,-49.82060,0.00
121,BRIGADA MILITAR BOM JESUS,00266 - SEMA-RS - SEMA-RS,00266 - SEMA-RS - SEMA-RS,BOM JESUS-RS,None,RHN,Ativo,02850048,8,86,0,-28.67170,-50.43360,0.00
122,GUAPORÉ,00082 - CPRM - Cia de Pesquisa de Recursos Minerais,00001 - ANA - Agência Nacional de Águas ,GUAPORÉ-RS,None,RHN,Ativo,02851044,8,86,0,-28.84440,-51.87920,520.00
123,UHE MACHADINHO LAGOA VERMELHA,00808 - CONS.MACHADINHO - Consórcio UHE Machadinho,00808 - CONS.MACHADINHO - Consórcio UHE Machadinho,LAGOA VERMELHA-RS,None,Setor Elétrico,Ativo,02851061,7,72,0,-28.22220,-51.51250,805.00
124,PARQUE DE RODEIOS ESMERALDA,00266 - SEMA-RS - SEMA-RS,00266 - SEMA-RS - SEMA-RS,ESMERALDA-RS,None,RHN,Ativo,02851079,7,70,0,-28.06530,-51.17000,0.00
125,CGH SÃO DOMINGOS DO PRATA BARRAMENTO,01187 - DOMINGOS PRATA - Usina São Domingos do Prata Ltda.,01187 - DOMINGOS PRATA - Usina São Domingos do Prata Ltda.,VISTA ALEGRE DO PRATA-RS,None,Setor Elétrico,Ativo,02851080,8,86,0,-28.80920,-51.73640,411.00
126,CGH TAIPINHA BARRAMENTO,00166 - CERFOX - CERFOX,00166 - CERFOX - CERFOX,SOLEDADE-RS,None,Setor Elétrico,Ativo,02851085,8,86,0,-28.93640,-51.50580,555.00
127,AULER,00082 - CPRM - Cia de Pesquisa de Recursos Minerais,00001 - ANA - Agência Nacional de Águas ,SOLEDADE-RS,None,RHN,Ativo,02852004,8,86,0,-28.80390,-52.38170,700.00
128,UHE PASSO FUNDO PLU,00112 - ENGIE - Engie Brasil Energia S.A.,00112 - ENGIE - Engie Brasil Energia S.A.,PASSO FUNDO-RS,None,Setor Elétrico,Ativo,02852057,7,73,0,-28.22670,-52.40330,684.00
129,AEROCLUBE CARAZINHO,00266 - SEMA-RS - SEMA-RS,00266 - SEMA-RS - SEMA-RS,CARAZINHO-RS,None,RHN,Ativo,02852074,8,85,0,-28.32250,-52.81640,0.00
130,POLO UAB TAPEJARA,00266 - SEMA-RS - SEMA-RS,00266 - SEMA-RS - SEMA-RS,TAPEJARA-RS,None,RHN,Ativo,02852075,7,72,0,-28.08920,-52.00610,0.00
131,CGH SOLEDADE BARRAMENTO,00166 - CERFOX - CERFOX,00166 - CERFOX - CERFOX,FONTOURA XAVIER-RS,None,Setor Elétrico,Ativo,02852077,8,86,0,-28.93780,-52.48560,533.00
132,INSTITUTO FEDERAL PANAMBI,00266 - SEMA-RS - SEMA-RS,00266 - SEMA-RS - SEMA-RS,PANAMBI-RS,None,RHN,Ativo,02853052,7,75,0,-28.28170,-53.51580,0.00
133,FAZENDA ROOS SANTA BÁRBARA DO SUL,00266 - SEMA-RS - SEMA-RS,00266 - SEMA-RS - SEMA-RS,SANTA BARBARA DO SUL-RS,None,RHN,Ativo,02853053,8,85,0,-28.18330,-53.22420,0.00
134,CGH IGREJINHA BARRAMENTO,01186 - CADEADO - Boa Vista do Cadeado Energia Ltda.,01186 - CADEADO - Boa Vista do Cadeado Energia Ltda.,BOA VISTA DO CADEADO-RS,None,Setor Elétrico,Ativo,02853054,7,75,0,-28.79530,-53.97140,0.00
135,CGH FORMIGUEIRO BARRAMENTO,01188 - FORMIGUEIRO - Formigueiro Geração E Comercio De Energia Elé...,01188 - FORMIGUEIRO - Formigueiro Geração E Comercio De Energia Elé...,BOA VISTA DO CADEADO-RS,None,Setor Elétrico,Ativo,02853055,7,75,0,-28.53690,-53.86030,0.00
136,CGH JOÃO DO PASSO BARRAMENTO,01190 - MFB - MFB Participações Ltda.,01190 - MFB - MFB Participações Ltda.,CONDOR-RS,ARROIO PALMEIRAS,Setor Elétrico,Ativo,02853056,7,75,75101100,-28.24500,-53.41560,439.00
137,ESCOLA CAPÃO DO CIPÓ,00266 - SEMA-RS - SEMA-RS,00266 - SEMA-RS - SEMA-RS,CAPÃO DO CIPÓ-RS,None,RHN,Ativo,02854031,7,75,0,-28.94170,-54.55780,0.00
138,COOPATRIGO BOSSOROCA,00266 - SEMA-RS - SEMA-RS,00266 - SEMA-RS - SEMA-RS,BOSSOROCA-RS,None,RHN,Ativo,02854032,7,75,0,-28.73250,-54.91170,0.00
139,SANTA TECLA TUPANCIRETÃ,00266 - SEMA-RS - SEMA-RS,00266 - SEMA-RS - SEMA-RS,TUPANCIRETA-RS,None,RHN,Ativo,02854036,7,75,0,-28.90030,-54.15890,0.00
140,CGH COOPERMIL JUSANTE,01211 - COOPERMIL - Cooperativa Mista São Luiz LTDA.,01211 - COOPERMIL - Cooperativa Mista São Luiz LTDA.,GUARANI DAS MISSÕES-RS,None,Setor Elétrico,Ativo,02854039,7,74,0,-28.13890,-54.54640,245.00
141,CRAS GARRUCHOS,00266 - SEMA-RS - SEMA-RS,00266 - SEMA-RS - SEMA-RS,GARIBALDI-RS,None,RHN,Ativo,02855017,7,75,0,-28.19250,-55.63780,0.00
142,BRIGADA MILITAR STO. ANTÔNIO MISSÕES,00266 - SEMA-RS - SEMA-RS,00266 - SEMA-RS - SEMA-RS,SANTO ANTÔNIO DAS MISSÕES-RS,None,RHN,Ativo,02855018,7,75,0,-28.51280,-55.22860,0.00
143,AEROPORTO TORRES,00266 - SEMA-RS - SEMA-RS,00266 - SEMA-RS - SEMA-RS,TORRES-RS,None,RHN,Ativo,02949025,8,87,0,-29.41420,-49.80470,0.00
144,PREFEITURA MORRINHOS DO SUL,00266 - SEMA-RS - SEMA-RS,00266 - SEMA-RS - SEMA-RS,MORRINHOS DO SUL-RS,None,RHN,Ativo,02949027,8,84,0,-29.36860,-49.93310,0.00
145,BARRAGEM DO RIO LEÃO,00266 - SEMA-RS - SEMA-RS,00266 - SEMA-RS - SEMA-RS,JACINTO MACHADO-SC,None,RHN,Ativo,02949029,8,84,0,-29.09220,-49.88080,0.00
146,CÂNION FORTALEZA CAMBARÁ DO SUL,00266 - SEMA-RS - SEMA-RS,00266 - SEMA-RS - SEMA-RS,CAMBARÁ DO SUL-RS,None,RHN,Ativo,02949030,8,84,0,-29.08420,-49.99860,0.00
147,MORRO DO FORNO MORRINHOS DO SUL,00266 - SEMA-RS - SEMA-RS,00266 - SEMA-RS - SEMA-RS,MORRINHOS DO SUL-RS,None,RHN,Ativo,02949031,8,84,0,-29.31670,-49.98250,0.00
148,CAPÃO DOS COXOS,00082 - CPRM - Cia de Pesquisa de Recursos Minerais,00001 - ANA - Agência Nacional de Águas ,SÃO FRANCISCO DE PAULA-RS,None,RHN,Ativo,02950045,8,87,0,-29.40830,-50.58420,890.00
149,BRIGADA MILITAR STO. ANTÔNIO DA PATRULHA,00266 - SEMA-RS - SEMA-RS,00266 - SEMA-RS - SEMA-RS,SANTO ANTÔNIO DA PATRULHA-RS,None,RHN,Ativo,02950103,8,87,0,-29.82640,-50.51810,0.00
150,AEROPORTO CAPÁO DA CANOA,00266 - SEMA-RS - SEMA-RS,00266 - SEMA-RS - SEMA-RS,CAPÃO DA CANOA-RS,None,RHN,Ativo,02950104,8,87,0,-29.76610,-50.03830,0.00
151,ETA CORSAN OSÓRIO,00266 - SEMA-RS - SEMA-RS,00266 - SEMA-RS - SEMA-RS,OSÓRIO-RS,None,RHN,Ativo,02950106,8,87,0,-29.88890,-50.25810,0.00
152,BOA ESPERANÇA ROLANTE,00266 - SEMA-RS - SEMA-RS,00266 - SEMA-RS - SEMA-RS,ROLANTE-RS,None,RHN,Ativo,02950107,8,87,0,-29.55860,-50.50250,0.00
153,FAZENDA TAIPAS - S.F. DE PAULA,00266 - SEMA-RS - SEMA-RS,00266 - SEMA-RS - SEMA-RS,SÃO FRANCISCO DE PAULA-RS,None,RHN,Ativo,02950108,8,87,0,-29.46860,-50.45190,0.00
154,PQ. APARADOS DA SERRA CAMBARÁ DO SUL,00266 - SEMA-RS - SEMA-RS,00266 - SEMA-RS - SEMA-RS,CAMBARÁ DO SUL-RS,None,RHN,Ativo,02950109,8,86,0,-29.15860,-50.07890,0.00
155,PROP. BARRA DO OURO,00266 - SEMA-RS - SEMA-RS,00266 - SEMA-RS - SEMA-RS,MAQUINÉ-RS,None,RHN,Ativo,02950110,8,87,0,-29.56810,-50.28500,0.00
156,RINCÃO DOS KROEFF S.F. DE PAULA,00266 - SEMA-RS - SEMA-RS,00266 - SEMA-RS - SEMA-RS,SÃO FRANCISCO DE PAULA-RS,None,RHN,Ativo,02950111,8,87,0,-29.48640,-50.35360,0.00
157,MORRO REUTER,00082 - CPRM - Cia de Pesquisa de Recursos Minerais,00001 - ANA - Agência Nacional de Águas ,MORRO REUTER-RS,None,RHN,Ativo,02951142,8,87,0,-29.52890,-51.03690,492.00
158,ASCLA SANTA CLARA CARLOS BARBOSA,00266 - SEMA-RS - SEMA-RS,00266 - SEMA-RS - SEMA-RS,CARLOS BARBOSA-RS,None,RHN,Ativo,02951144,8,87,0,-29.31500,-51.48830,0.00
159,CGH SANTO ANJO JUSANTE,01204 - SANTO ANJO - CGH SANTO ANJO GERAÇÃO DE ENERGIA LTDA.,01204 - SANTO ANJO - CGH SANTO ANJO GERAÇÃO DE ENERGIA LTDA.,CAXIAS DO SUL-RS,None,Setor Elétrico,Ativo,02951145,8,87,0,-29.20500,-51.09000,245.00
160,CGH BOA VISTA BARRAMENTO,01044 - CERTEL - Certel Energias Renováveis S.A,01044 - CERTEL - Certel Energias Renováveis S.A,ESTRELA-RS,None,Setor Elétrico,Ativo,02951146,8,86,0,-29.47280,-51.86810,33.00
161,CLUBE BARROS CASSAL,00266 - SEMA-RS - SEMA-RS,00266 - SEMA-RS - SEMA-RS,BARROS CASSAL-RS,None,RHN,Ativo,02952060,8,85,0,-29.09610,-52.58860,0.00
162,IGREJA HERVEIRAS,00266 - SEMA-RS - SEMA-RS,00266 - SEMA-RS - SEMA-RS,HERVEIRAS-RS,None,RHN,Ativo,02952061,8,85,0,-29.45360,-52.64860,0.00
163,FAZ. SÃO JOSÉ LINHA CARVALHO,00266 - SEMA-RS - SEMA-RS,00266 - SEMA-RS - SEMA-RS,SINIMBU-RS,None,RHN,Ativo,02952065,8,85,0,-29.38220,-52.71580,0.00
164,LINHA ALMEIDA,00266 - SEMA-RS - SEMA-RS,00266 - SEMA-RS - SEMA-RS,SINIMBU-RS,None,RHN,Ativo,02952066,8,85,0,-29.37000,-52.50720,0.00
165,PROPRIEDADE NOVO CABRAIS,00266 - SEMA-RS - SEMA-RS,00266 - SEMA-RS - SEMA-RS,NOVO CABRAIS-RS,None,RHN,Ativo,02953068,8,85,0,-29.75580,-53.05500,0.00
166,SECR. AGRI. SÃO MARTINHO,00266 - SEMA-RS - SEMA-RS,00266 - SEMA-RS - SEMA-RS,SÃO MARTINHO DA SERRA-RS,None,RHN,Ativo,02953071,7,76,0,-29.53670,-53.85390,0.00
167,RINCÃO DO HERVAL CERRO BRANCO,00266 - SEMA-RS - SEMA-RS,00266 - SEMA-RS - SEMA-RS,CERRO BRANCO-RS,None,RHN,Ativo,02953073,8,85,0,-29.62920,-53.02890,0.00
168,LINHA POMERANOS AGUDO,00266 - SEMA-RS - SEMA-RS,00266 - SEMA-RS - SEMA-RS,AGUDO-RS,None,RHN,Ativo,02953074,8,85,0,-29.58440,-53.14920,0.00
169,CEREAIS CENTRO SUL TUPANCIRETÃ,00266 - SEMA-RS - SEMA-RS,00266 - SEMA-RS - SEMA-RS,TUPANCIRETA-RS,None,RHN,Ativo,02953075,8,85,0,-29.15030,-53.77860,0.00
170,COXILHA DO PAU FINADO SÃO GABRIEL,00266 - SEMA-RS - SEMA-RS,00266 - SEMA-RS - SEMA-RS,SÃO GABRIEL-RS,None,RHN,Ativo,02954040,8,85,0,-29.95110,-54.33170,0.00
171,SECR. AGR. M. AMB. DILERMANO GUIAR,00266 - SEMA-RS - SEMA-RS,00266 - SEMA-RS - SEMA-RS,DILERMANDO DE AGUIAR-RS,None,RHN,Ativo,02954041,7,76,0,-29.70750,-54.20560,0.00
172,FAZENDA SANTA TEREZA S.F. DE ASSIS,00266 - SEMA-RS - SEMA-RS,00266 - SEMA-RS - SEMA-RS,SÃO FRANCISCO DE ASSIS-RS,None,RHN,Ativo,02954044,7,76,0,-29.32780,-54.94750,0.00
173,AGRP. SANTO ANTÔNIO JARI,00266 - SEMA-RS - SEMA-RS,00266 - SEMA-RS - SEMA-RS,JARÍ-RS,None,RHN,Ativo,02954045,7,76,0,-29.22580,-54.19250,0.00
174,COOPERATIVA AGROSOLO UNISTALDA,00266 - SEMA-RS - SEMA-RS,00266 - SEMA-RS - SEMA-RS,UNISTALDA-RS,None,RHN,Ativo,02955022,7,75,0,-29.04610,-55.15610,0.00
175,ESCOLATÉCNICA ENCRUZILHADA MAÇAMBARÁ,00266 - SEMA-RS - SEMA-RS,00266 - SEMA-RS - SEMA-RS,MAÇAMBARA-RS,None,RHN,Ativo,02955023,7,76,0,-29.00580,-55.50890,0.00
176,FAZENDA CORDILHEIRA S.F. DE ASSIS,00266 - SEMA-RS - SEMA-RS,00266 - SEMA-RS - SEMA-RS,SÃO FRANCISCO DE ASSIS-RS,None,RHN,Ativo,02955024,7,76,0,-29.42640,-55.15830,0.00
177,CÂMARA DE VEREADORES MAÇAMBARÁ,00266 - SEMA-RS - SEMA-RS,00266 - SEMA-RS - SEMA-RS,MAÇAMBARA-RS,None,RHN,Ativo,02956011,7,75,0,-29.14780,-56.06500,0.00
178,SANCHURI (ESCOLA) URUGUAIANA,00266 - SEMA-RS - SEMA-RS,00266 - SEMA-RS - SEMA-RS,URUGUAIANA-RS,None,RHN,Ativo,02956012,7,77,0,-29.54310,-56.81220,0.00
179,AGROP. CERRO DO COQUEIRO URUGUAIANA,00266 - SEMA-RS - SEMA-RS,00266 - SEMA-RS - SEMA-RS,URUGUAIANA-RS,None,RHN,Ativo,02956013,7,76,0,-29.77860,-56.52060,0.00
180,ESTÂNIA FORTUNATOURUGUAIANA,00266 - SEMA-RS - SEMA-RS,00266 - SEMA-RS - SEMA-RS,URUGUAIANA-RS,None,RHN,Ativo,02956014,7,77,0,-29.87440,-56.79750,0.00
181,FAZENDA SÃO LEONTINO ALEGRETE,00266 - SEMA-RS - SEMA-RS,00266 - SEMA-RS - SEMA-RS,ALEGRETE-RS,None,RHN,Ativo,02956016,7,76,0,-29.75920,-56.14860,0.00
182,ETA VIAMÃO,00266 - SEMA-RS - SEMA-RS,00266 - SEMA-RS - SEMA-RS,VIAMÃO-RS,None,RHN,Ativo,03050011,8,87,0,-30.09580,-50.98250,0.00
183,FAZENDA CAVALHADA PALMARES,00266 - SEMA-RS - SEMA-RS,00266 - SEMA-RS - SEMA-RS,MOSTARDAS-RS,None,RHN,Ativo,03050014,8,87,0,-30.50110,-50.57750,0.00
184,ESCOLA MARIO QUINTANA MOSTADAS,00266 - SEMA-RS - SEMA-RS,00266 - SEMA-RS - SEMA-RS,MOSTARDAS-RS,None,RHN,Ativo,03050015,8,87,0,-30.69440,-50.56860,0.00
185,ESTACIONAMENETO PREFEITURA SERTÃO SANTANA,00266 - SEMA-RS - SEMA-RS,00266 - SEMA-RS - SEMA-RS,SERTÃO SANTANA-RS,None,RHN,Ativo,03051071,8,87,0,-30.46080,-51.60310,0.00
186,PREFEITURA MARIANA PIMENTEL,00266 - SEMA-RS - SEMA-RS,00266 - SEMA-RS - SEMA-RS,MARIANA PIMENTEL-RS,None,RHN,Ativo,03051072,8,87,0,-30.35420,-51.58440,0.00
187,PROPRIEDADE BARÃO DO TRIUNFO,00266 - SEMA-RS - SEMA-RS,00266 - SEMA-RS - SEMA-RS,BARÃO DO TRIUNFO-RS,None,RHN,Ativo,03051074,8,87,0,-30.50530,-51.90030,0.00
188,COTRIBÁ PANTANO GRANDE,00266 - SEMA-RS - SEMA-RS,00266 - SEMA-RS - SEMA-RS,PANTANO GRANDE-RS,None,RHN,Ativo,03052025,8,85,0,-30.20420,-52.37030,0.00
189,CHECHE DOM FELICIANO,00266 - SEMA-RS - SEMA-RS,00266 - SEMA-RS - SEMA-RS,DOM FELICIANO-RS,None,RHN,Ativo,03052026,8,87,0,-30.70170,-52.11220,0.00
190,COTRISEL VILA NOVA DO SUL,00266 - SEMA-RS - SEMA-RS,00266 - SEMA-RS - SEMA-RS,VILA NOVA DO SUL-RS,None,RHN,Ativo,03053032,8,85,0,-30.33530,-53.89250,0.00
191,MARCO DAS ÁGUAS LAVRAS DO SUL,00266 - SEMA-RS - SEMA-RS,00266 - SEMA-RS - SEMA-RS,LAVRAS DO SUL-RS,None,RHN,Ativo,03054028,8,87,0,-30.74780,-54.13750,0.00
192,AZEVEDO SODRÉ SÃO GABRIEL,00266 - SEMA-RS - SEMA-RS,00266 - SEMA-RS - SEMA-RS,SÃO GABRIEL-RS,None,RHN,Ativo,03054029,7,76,0,-30.09720,-54.64390,0.00
193,FAZENDA SÃO GABRIEL,00266 - SEMA-RS - SEMA-RS,00266 - SEMA-RS - SEMA-RS,SÃO GABRIEL-RS,None,RHN,Ativo,03054030,7,76,0,-30.48110,-54.55330,0.00
194,TIARAJU SÃO GABRIEL,00266 - SEMA-RS - SEMA-RS,00266 - SEMA-RS - SEMA-RS,SÃO GABRIEL-RS,None,RHN,Ativo,03054031,7,76,0,-30.24470,-54.36970,0.00
195,USINA EÓLICA CERRO CHATO,00266 - SEMA-RS - SEMA-RS,00266 - SEMA-RS - SEMA-RS,SANTANA DO LIVRAMENTO-RS,None,RHN,Ativo,03055016,7,76,0,-30.79190,-55.66170,0.00
196,ESTÂNCIA SARANDI S. LIVRAMENTO,00266 - SEMA-RS - SEMA-RS,00266 - SEMA-RS - SEMA-RS,SANTANA DO LIVRAMENTO-RS,None,RHN,Ativo,03055017,7,77,0,-30.66500,-55.95310,0.00
197,CABECEIRA SAICÃ ROSÁRIO DO SUL,00266 - SEMA-RS - SEMA-RS,00266 - SEMA-RS - SEMA-RS,ROSÁRIO DO SUL-RS,None,RHN,Ativo,03055018,7,76,0,-30.22690,-55.15530,0.00
198,CERRO DO COMBATE S. LIVRAMENTO,00266 - SEMA-RS - SEMA-RS,00266 - SEMA-RS - SEMA-RS,SANTANA DO LIVRAMENTO-RS,None,RHN,Ativo,03055019,7,76,0,-30.54690,-55.31970,0.00
199,ESTÂNCIA SANTA HILMA S. LIVRAMENTO,00266 - SEMA-RS - SEMA-RS,00266 - SEMA-RS - SEMA-RS,SANTANA DO LIVRAMENTO-RS,None,RHN,Ativo,03055021,7,77,0,-30.94530,-55.66640,0.00
200,ESTÂNCIA CATY QUARAÍ,00266 - SEMA-RS - SEMA-RS,00266 - SEMA-RS - SEMA-RS,QUARAÍ-RS,None,RHN,Ativo,03056029,7,77,0,-30.42470,-56.02060,0.00
201,GRANJA SANTA LUÍZA QUARAÍ,00266 - SEMA-RS - SEMA-RS,00266 - SEMA-RS - SEMA-RS,QUARAÍ-RS,None,RHN,Ativo,03056030,7,77,0,-30.10280,-56.11830,0.00
202,CTG ESTÂNCIA REAL DE BOJURU,00266 - SEMA-RS - SEMA-RS,00266 - SEMA-RS - SEMA-RS,SÃO JOSÉ DO NORTE-RS,None,RHN,Ativo,03151074,8,87,0,-31.65500,-51.43750,0.00
203,PQ. DE MÁQUINAS ARROIO DO PADRE,00266 - SEMA-RS - SEMA-RS,00266 - SEMA-RS - SEMA-RS,ARROIO DO PADRE-RS,None,RHN,Ativo,03152046,8,87,0,-31.44580,-52.42060,0.00
204,SECRETARIA AGRIC. MORRO REDONDO,00266 - SEMA-RS - SEMA-RS,00266 - SEMA-RS - SEMA-RS,MORRO REDONDO-RS,None,RHN,Ativo,03152047,8,88,0,-31.60690,-52.62640,0.00
205,ESTÂNCIA DA GRAÇA PELOTAS,00266 - SEMA-RS - SEMA-RS,00266 - SEMA-RS - SEMA-RS,PELOTAS-RS,None,RHN,Ativo,03152051,8,87,0,-31.62580,-52.23000,0.00
206,SÃO LOURENÇO DO SUL - COOPAR,00266 - SEMA-RS - SEMA-RS,00266 - SEMA-RS - SEMA-RS,SÃO LOURENÇO DO SUL-RS,None,RHN,Ativo,03152052,8,87,0,-31.25970,-52.20360,0.00
207,CPRM PEDRAS ALTAS,00266 - SEMA-RS - SEMA-RS,00266 - SEMA-RS - SEMA-RS,PEDRAS ALTAS-RS,None,RHN,Ativo,03153031,8,88,0,-31.73360,-53.58860,0.00
208,CORSANPINHEIRO MACHADO,00266 - SEMA-RS - SEMA-RS,00266 - SEMA-RS - SEMA-RS,PINHEIRO MACHADO-RS,None,RHN,Ativo,03153033,8,88,0,-31.57780,-53.37720,0.00
209,PIRATINI BRIGADA MILITAR,00266 - SEMA-RS - SEMA-RS,00266 - SEMA-RS - SEMA-RS,PIRATINI-RS,None,RHN,Ativo,03153034,8,88,0,-31.43860,-53.09830,0.00
210,USINA TERMOELÉTRICA PIRATINI,00266 - SEMA-RS - SEMA-RS,00266 - SEMA-RS - SEMA-RS,PIRATINI-RS,None,RHN,Ativo,03153035,8,87,0,-31.24190,-53.18080,0.00
211,ADUANA ACEGUÁ,00266 - SEMA-RS - SEMA-RS,00266 - SEMA-RS - SEMA-RS,ACEGUÁ-RS,None,RHN,Ativo,03154011,8,88,0,-31.86610,-54.16720,0.00
212,AEROPORTO BAGÉ,00266 - SEMA-RS - SEMA-RS,00266 - SEMA-RS - SEMA-RS,BAGÉ-RS,None,RHN,Ativo,03154012,7,79,0,-31.38890,-54.11310,0.00
213,BENTO RENGO DOM PEDRITO,00266 - SEMA-RS - SEMA-RS,00266 - SEMA-RS - SEMA-RS,DOM PEDRITO-RS,None,RHN,Ativo,03154013,7,76,0,-31.27000,-54.53110,0.00
214,JOSÉ OTÍVIO BAGÉ,00266 - SEMA-RS - SEMA-RS,00266 - SEMA-RS - SEMA-RS,BAGÉ-RS,None,RHN,Ativo,03154014,7,79,0,-31.17920,-54.15690,0.00
215,PASSO SÃO LUIS BAGÉ,00266 - SEMA-RS - SEMA-RS,00266 - SEMA-RS - SEMA-RS,BAGÉ-RS,None,RHN,Ativo,03154015,7,79,0,-31.51190,-54.51140,0.00
216,TORQUATO SEVERO DOM PEDRITO,00266 - SEMA-RS - SEMA-RS,00266 - SEMA-RS - SEMA-RS,DOM PEDRITO-RS,None,RHN,Ativo,03154016,7,76,0,-31.02220,-54.18470,0.00
217,VILA SERRILHADA DOM PEDRITO,00266 - SEMA-RS - SEMA-RS,00266 - SEMA-RS - SEMA-RS,DOM PEDRITO-RS,None,RHN,Ativo,03154017,7,76,0,-31.43780,-54.71220,0.00
218,MARCO ITAQUATIÁ S. LIVRAMENTO,00266 - SEMA-RS - SEMA-RS,00266 - SEMA-RS - SEMA-RS,SANTANA DO LIVRAMENTO-RS,None,RHN,Ativo,03155004,7,76,0,-31.00500,-55.34080,0.00
219,AGROPECUÁRIA POZZOBON S. LIVRAMENTO,00266 - SEMA-RS - SEMA-RS,00266 - SEMA-RS - SEMA-RS,SANTANA DO LIVRAMENTO-RS,None,RHN,Ativo,03155005,7,76,0,-31.23970,-55.09440,0.00
220,BARRAGEM DO CHASQUEIRO ARROIO GRANDE,00266 - SEMA-RS - SEMA-RS,00266 - SEMA-RS - SEMA-RS,ARROIO GRANDE-RS,None,RHN,Ativo,03253029,8,88,0,-32.16190,-53.00780,0.00
221,CORSAN HERVAL,00266 - SEMA-RS - SEMA-RS,00266 - SEMA-RS - SEMA-RS,HERVAL-RS,None,RHN,Ativo,03253030,8,88,0,-32.02890,-53.39780,0.00
222,PASSO DO CENTURIÃO HERVAL,00266 - SEMA-RS - SEMA-RS,00266 - SEMA-RS - SEMA-RS,HERVAL-RS,None,RHN,Ativo,03253031,8,88,0,-32.11940,-53.73500,0.00
223,AGRORIZA S. VITÓRIA PALMAR,00266 - SEMA-RS - SEMA-RS,00266 - SEMA-RS - SEMA-RS,SANTA VITÓRIA DO PALMAR-RS,None,RHN,Ativo,03353020,8,88,0,-33.23810,-53.06190,0.00
224,RECEITA FEDERAL CHUÍ,00266 - SEMA-RS - SEMA-RS,00266 - SEMA-RS - SEMA-RS,CHUÍ-RS,None,RHN,Ativo,03353021,8,88,0,-33.67720,-53.44610,0.00
225,MISSÃO SURUCUCU,00082 - CPRM - Cia de Pesquisa de Recursos Minerais,00001 - ANA - Agência Nacional de Águas ,ALTO ALEGRE-RR,None,RHN,Ativo,08263000,1,14,0,2.83580,-63.64170,0.00
226,MALOCA DO ERICÓ,00082 - CPRM - Cia de Pesquisa de Recursos Minerais,00001 - ANA - Agência Nacional de Águas ,ALTO ALEGRE-RR,None,RHN,Ativo,08362000,1,14,0,3.63190,-62.39890,0.00
227,TAMISHIYACU,00906 - SENAMHI-PERU - SENAMHI-PERU,00906 - SENAMHI-PERU - SENAMHI-PERU,PERU-PU,RIO SOLIMÕES/AMAZONAS,RHN,Ativo,10075000,1,10,10001000,-4.00360,-73.16110,105.00
228,MAZAN,00906 - SENAMHI-PERU - SENAMHI-PERU,00906 - SENAMHI-PERU - SENAMHI-PERU,PERU-PU,RIO NAPO,RHN,Ativo,10086700,1,10,10000090,-3.48810,-73.08190,0.00
229,TABATINGA,00082 - CPRM - Cia de Pesquisa de Recursos Minerais,00001 - ANA - Agência Nacional de Águas ,TABATINGA-AM,RIO SOLIMÕES/AMAZONAS,CotaOnline,Ativo,10100000,1,10,10001000,-4.23470,-69.94470,78.00
230,TABATINGA,00082 - CPRM - Cia de Pesquisa de Recursos Minerais,00001 - ANA - Agência Nacional de Águas ,TABATINGA-AM,RIO SOLIMÕES/AMAZONAS,RHN,Ativo,10100000,1,10,10001000,-4.23470,-69.94470,78.00
231,PALMEIRAS DO JAVARI,00500 - ÁGUA E SOLO - Água e Solo Estudos e Projetos Ltda.,00001 - ANA - Agência Nacional de Águas ,ATALAIA DO NORTE-AM,RIO JAVARI,RHN,Ativo,10200000,1,10,10900000,-5.13890,-72.81360,142.00
232,ESTIRÃO DO REPOUSO,00500 - ÁGUA E SOLO - Água e Solo Estudos e Projetos Ltda.,00001 - ANA - Agência Nacional de Águas ,ATALAIA DO NORTE-AM,RIO JAVARI,RHN,Ativo,10500000,1,10,10900000,-4.34080,-70.90560,89.00
233,ESTIRÃO DO REPOUSO,00500 - ÁGUA E SOLO - Água e Solo Estudos e Projetos Ltda.,00001 - ANA - Agência Nacional de Águas ,ATALAIA DO NORTE-AM,RIO JAVARI,Açudes Semiárido,Ativo,10500000,1,10,10900000,-4.34080,-70.90560,89.00
234,LADÁRIO - JUSANTE,00500 - ÁGUA E SOLO - Água e Solo Estudos e Projetos Ltda.,00001 - ANA - Agência Nacional de Águas ,ATALAIA DO NORTE-AM,RIO ITACUAI,RHN,Ativo,10910000,1,10,10940000,-4.58360,-70.26440,91.00
235,SÃO PAULO DE OLIVENÇA,00500 - ÁGUA E SOLO - Água e Solo Estudos e Projetos Ltda.,00001 - ANA - Agência Nacional de Águas ,SÃO PAULO DE OLIVENÇA-AM,RIO SOLIMÕES/AMAZONAS,RHN,Ativo,11400000,1,11,10001000,-3.45690,-68.91190,71.00
236,SANTO ANTÔNIO DO IÇÁ,00500 - ÁGUA E SOLO - Água e Solo Estudos e Projetos Ltda.,00001 - ANA - Agência Nacional de Águas ,SANTO ANTÔNIO DO IÇÁ-AM,RIO SOLIMÕES/AMAZONAS,RHN,Ativo,11500000,1,11,10001000,-3.10170,-67.93560,53.00
237,COLOCAÇÃO CAXIAS NOVO,00500 - ÁGUA E SOLO - Água e Solo Estudos e Projetos Ltda.,00001 - ANA - Agência Nacional de Águas ,JUTAÍ-AM,RIO JUTAÍ,RHN,Ativo,12100000,1,12,12103000,-4.65140,-68.32440,0.00
238,NOVO CUJUBIM,"00100 - COHIDRO - Consultoria, Estudos e Projetos",00001 - ANA - Agência Nacional de Águas ,JUTAÍ-AM,RIO JUTAÍ,RHN,Ativo,12160000,1,12,12103000,-4.65140,-68.32440,0.00
239,PORTO SEGURO,00500 - ÁGUA E SOLO - Água e Solo Estudos e Projetos Ltda.,00001 - ANA - Agência Nacional de Águas ,JUTAÍ-AM,RIO JUTAÍ,RHN,Ativo,12240000,1,12,12103000,-3.33720,-67.49170,0.00
240,FONTE BOA,00500 - ÁGUA E SOLO - Água e Solo Estudos e Projetos Ltda.,00001 - ANA - Agência Nacional de Águas ,FONTE BOA-AM,RIO SOLIMÕES/AMAZONAS,RHN,Ativo,12351000,1,12,10001000,-2.49140,-66.06170,0.00
241,THAUMATURGO,00500 - ÁGUA E SOLO - Água e Solo Estudos e Projetos Ltda.,00001 - ANA - Agência Nacional de Águas ,MARECHAL THAUMATURGO-AC,RIO JURUÁ,RHN,Ativo,12370000,1,12,12200000,-8.94580,-72.78470,0.00
242,PORTO WALTER,00500 - ÁGUA E SOLO - Água e Solo Estudos e Projetos Ltda.,00001 - ANA - Agência Nacional de Águas ,PORTO WALTER-AC,RIO JURUÁ,RHN,Ativo,12390000,1,12,12200000,-8.26720,-72.74110,0.00
243,CRUZEIRO DO SUL,00500 - ÁGUA E SOLO - Água e Solo Estudos e Projetos Ltda.,00001 - ANA - Agência Nacional de Águas ,CRUZEIRO DO SUL-AC,RIO JURUÁ,RHN,Ativo,12500000,1,12,12200000,-7.63330,-72.66030,0.00
244,PONTE DO RIO LIBERDADE,00500 - ÁGUA E SOLO - Água e Solo Estudos e Projetos Ltda.,00001 - ANA - Agência Nacional de Águas ,TARAUACÁ-AC,RIO LIBERDADE,RHN,Ativo,12510500,1,12,12253000,-7.79940,-72.02110,189.00
245,IPIXUNA,00500 - ÁGUA E SOLO - Água e Solo Estudos e Projetos Ltda.,00001 - ANA - Agência Nacional de Águas ,IPIXUNA-AM,RIO JURUÁ,RHN,Ativo,12520000,1,12,12200000,-7.05560,-71.68920,0.00
246,SERINGAL SANTO AMARO,00500 - ÁGUA E SOLO - Água e Solo Estudos e Projetos Ltda.,00001 - ANA - Agência Nacional de Águas ,EIRUNEPÉ-AM,RIO GREGÓRIO,RHN,Ativo,12540000,1,12,12266000,-7.26670,-70.98330,0.00
247,EIRUNEPÉ - MONTANTE,00500 - ÁGUA E SOLO - Água e Solo Estudos e Projetos Ltda.,00001 - ANA - Agência Nacional de Águas ,EIRUNEPÉ-AM,RIO JURUÁ,RHN,Ativo,12550000,1,12,12200000,-6.68440,-69.88110,0.00
248,JORDÃO,00380 - SEMA-AC - Secretaria de Meio Ambiente do Estado do Acre,00380 - SEMA-AC - Secretaria de Meio Ambiente do Estado do Acre,JORDÃO-AC,RIO TARAUACÁ,RHN,Ativo,12557000,1,12,12280000,-9.18830,-71.95250,239.00
249,PONTE DE TARAUACÁ,00500 - ÁGUA E SOLO - Água e Solo Estudos e Projetos Ltda.,00001 - ANA - Agência Nacional de Águas ,TARAUACÁ-AC,RIO TARAUACÁ,RHN,Ativo,12590000,1,12,12280000,-8.15190,-70.74560,0.00
250,SERINGAL SANTA HELENA,00500 - ÁGUA E SOLO - Água e Solo Estudos e Projetos Ltda.,00001 - ANA - Agência Nacional de Águas ,FEIJÓ-AC,RIO ENVIRA,RHN,Ativo,12640000,1,12,12286000,-8.68580,-70.55110,0.00
251,FEIJÓ,00500 - ÁGUA E SOLO - Água e Solo Estudos e Projetos Ltda.,00001 - ANA - Agência Nacional de Águas ,FEIJÓ-AC,RIO ENVIRA,RHN,Ativo,12650000,1,12,12286000,-8.16360,-70.35640,0.00
252,ENVIRA,00500 - ÁGUA E SOLO - Água e Solo Estudos e Projetos Ltda.,00001 - ANA - Agência Nacional de Águas ,ENVIRA-AM,RIO TARAUACÁ,RHN,Ativo,12680000,1,12,12280000,-7.42810,-70.02250,0.00
253,SANTOS DUMONT,00500 - ÁGUA E SOLO - Água e Solo Estudos e Projetos Ltda.,00001 - ANA - Agência Nacional de Águas ,ITAMARATI-AM,RIO JURUÁ,RHN,Ativo,12700000,1,12,12200000,-6.44030,-68.24610,0.00
254,GAVIÃO,00500 - ÁGUA E SOLO - Água e Solo Estudos e Projetos Ltda.,00001 - ANA - Agência Nacional de Águas ,CARAUARI-AM,RIO JURUÁ,RHN,Ativo,12840000,1,12,12200000,-4.83920,-66.85060,0.00
255,FORTE DAS GRAÇAS,00500 - ÁGUA E SOLO - Água e Solo Estudos e Projetos Ltda.,00001 - ANA - Agência Nacional de Águas ,JURUÁ-AM,RIO JURUÁ,RHN,Ativo,12842000,1,12,12200000,-3.64140,-66.10310,0.00
256,VILLARREAL,00907 - IDEAM-COLÔMBIA - IDEAM-COLÔMBIA,00907 - IDEAM-COLÔMBIA - IDEAM-COLÔMBIA,LA PEDRERA-CO,RIO CAQUETÁ/JAPURÁ,RHN,Ativo,12844500,1,12,12300000,-1.30940,-69.61920,0.00
257,VILA BITTENCOURT,00500 - ÁGUA E SOLO - Água e Solo Estudos e Projetos Ltda.,00001 - ANA - Agência Nacional de Águas ,JAPURÁ-AM,RIO CAQUETÁ/JAPURÁ,RHN,Ativo,12845000,1,12,12300000,-1.39470,-69.42830,0.00
258,ACANAUI,00500 - ÁGUA E SOLO - Água e Solo Estudos e Projetos Ltda.,00001 - ANA - Agência Nacional de Águas ,JAPURÁ-AM,RIO CAQUETÁ/JAPURÁ,RHN,Ativo,12850000,1,12,12300000,-1.82110,-66.60920,0.00
259,ESTIRÃO DA SANTA CRUZ,00500 - ÁGUA E SOLO - Água e Solo Estudos e Projetos Ltda.,00001 - ANA - Agência Nacional de Águas ,TEFÉ-AM,RIO TEFÉ,RHN,Ativo,12880000,1,12,12403000,-4.29220,-65.20170,0.00
260,TEFÉ - MISSÕES,00500 - ÁGUA E SOLO - Água e Solo Estudos e Projetos Ltda.,00001 - ANA - Agência Nacional de Águas ,TEFÉ-AM,RIO SOLIMÕES/AMAZONAS,RHN,Ativo,12900001,1,12,10001000,-3.37580,-64.65470,0.00
261,SERINGAL MOREIRA,00500 - ÁGUA E SOLO - Água e Solo Estudos e Projetos Ltda.,00001 - ANA - Agência Nacional de Águas ,COARI-AM,RIO COARI,RHN,Ativo,13100000,1,13,13100000,-5.10920,-63.98470,0.00
262,ITAPÉUA,00082 - CPRM - Cia de Pesquisa de Recursos Minerais,00001 - ANA - Agência Nacional de Águas ,COARI-AM,RIO SOLIMÕES/AMAZONAS,RHN,Ativo,13150000,1,13,10001000,-4.05780,-63.02780,40.00
263,ITAPÉUA,00082 - CPRM - Cia de Pesquisa de Recursos Minerais,00001 - ANA - Agência Nacional de Águas ,COARI-AM,RIO SOLIMÕES/AMAZONAS,CotaOnline,Ativo,13150000,1,13,10001000,-4.05780,-63.02780,40.00
264,COARI,00082 - CPRM - Cia de Pesquisa de Recursos Minerais,00001 - ANA - Agência Nacional de Águas ,COARI-AM,RIO SOLIMÕES/AMAZONAS,RHN,Ativo,13150003,1,13,10001000,-4.08560,-63.08330,0.00
265,SANTA ROSA DO PURUS - SEDE,00500 - ÁGUA E SOLO - Água e Solo Estudos e Projetos Ltda.,00001 - ANA - Agência Nacional de Águas ,SANTA ROSA DO PURUS-AC,RIO PURUS,RHN,Ativo,13169900,1,13,13300000,-9.43420,-70.49420,0.00
266,MANOEL URBANO,00082 - CPRM - Cia de Pesquisa de Recursos Minerais,00001 - ANA - Agência Nacional de Águas ,MANOEL URBANO-AC,RIO PURUS,RHN,Ativo,13180000,1,13,13300000,-8.88860,-69.27500,0.00
267,SENA MADUREIRA,00082 - CPRM - Cia de Pesquisa de Recursos Minerais,00001 - ANA - Agência Nacional de Águas ,SENA MADUREIRA-AC,RIO IACO,RHN,Ativo,13310000,1,13,13329000,-9.06780,-68.65310,0.00
268,SERINGAL GUARANY,00500 - ÁGUA E SOLO - Água e Solo Estudos e Projetos Ltda.,00001 - ANA - Agência Nacional de Águas ,SENA MADUREIRA-AC,RIO CAETÉ,RHN,Ativo,13405000,1,13,13329800,-9.11030,-68.99330,0.00
269,SERINGAL DA CARIDADE,00082 - CPRM - Cia de Pesquisa de Recursos Minerais,00001 - ANA - Agência Nacional de Águas ,BOCA DO ACRE-AM,RIO PURUS,RHN,Ativo,13410000,1,13,13300000,-9.04390,-68.57720,0.00
270,ALDEIA DOS PATOS,00082 - CPRM - Cia de Pesquisa de Recursos Minerais,00001 - ANA - Agência Nacional de Águas ,ASSIS BRASIL-AC,RIO ACRE,RHN,Ativo,13439000,1,13,13330000,-10.92610,-69.92330,256.00
271,ASSIS BRASIL,00082 - CPRM - Cia de Pesquisa de Recursos Minerais,00001 - ANA - Agência Nacional de Águas ,ASSIS BRASIL-AC,RIO ACRE,RHN,Ativo,13450000,1,13,13330000,-10.94360,-69.56560,0.00
272,BRASILÉIA,00082 - CPRM - Cia de Pesquisa de Recursos Minerais,00001 - ANA - Agência Nacional de Águas ,BRASILÉIA-AC,RIO ACRE,RHN,Ativo,13470000,1,13,13330000,-11.01780,-68.74500,0.00
273,COLÔNIA DOLORES (XAPURI),00082 - CPRM - Cia de Pesquisa de Recursos Minerais,00001 - ANA - Agência Nacional de Águas ,XAPURI-AC,RIO XAPURI,RHN,Ativo,13540000,1,13,13333200,-10.56060,-68.70470,0.00
274,XAPURI,00082 - CPRM - Cia de Pesquisa de Recursos Minerais,00001 - ANA - Agência Nacional de Águas ,XAPURI-AC,RIO ACRE,RHN,Ativo,13550000,1,13,13330000,-10.65110,-68.50750,0.00
275,CAPIXABA (Colocação São José),00082 - CPRM - Cia de Pesquisa de Recursos Minerais,00001 - ANA - Agência Nacional de Águas ,CAPIXABA-AC,RIO ACRE,RHN,Ativo,13568000,1,13,13330000,-10.38860,-67.93530,0.00
276,ESPALHA (Seringal Belo Horizonte),00082 - CPRM - Cia de Pesquisa de Recursos Minerais,00001 - ANA - Agência Nacional de Águas ,RIO BRANCO-AC,RIOZINHO DA ROLA ou RIO BRANCO,RHN,Ativo,13572000,1,13,13334000,-10.00500,-68.52940,0.00
277,RIO ROLA (Ramal do Barro Alto),00082 - CPRM - Cia de Pesquisa de Recursos Minerais,00001 - ANA - Agência Nacional de Águas ,RIO BRANCO-AC,RIOZINHO DA ROLA ou RIO BRANCO,RHN,Ativo,13578000,1,13,13334000,-10.05670,-67.96390,0.00
278,RIO BRANCO,00082 - CPRM - Cia de Pesquisa de Recursos Minerais,00001 - ANA - Agência Nacional de Águas ,RIO BRANCO-AC,RIO ACRE,RHN,Ativo,13600002,1,13,13330000,-9.97500,-67.80080,0.00
279,PORTO ACRE,00380 - SEMA-AC - Secretaria de Meio Ambiente do Estado do Acre,00380 - SEMA-AC - Secretaria de Meio Ambiente do Estado do Acre,PORTO ACRE-AC,RIO ACRE,RHN,Ativo,13610001,1,13,13330000,-9.58190,-67.52810,134.00
280,FLORIANO PEIXOTO,00500 - ÁGUA E SOLO - Água e Solo Estudos e Projetos Ltda.,00001 - ANA - Agência Nacional de Águas ,BOCA DO ACRE-AM,RIO ACRE,RHN,Ativo,13650000,1,13,13330000,-9.06670,-67.39690,0.00
281,VALPARAÍSO - MONTANTE,00500 - ÁGUA E SOLO - Água e Solo Estudos e Projetos Ltda.,00001 - ANA - Agência Nacional de Águas ,BOCA DO ACRE-AM,RIO PURUS,RHN,Ativo,13710001,1,13,13300000,-8.65330,-67.37500,0.00
282,LÁBREA,00500 - ÁGUA E SOLO - Água e Solo Estudos e Projetos Ltda.,00001 - ANA - Agência Nacional de Águas ,LÁBREA-AM,RIO PURUS,RHN,Ativo,13870000,1,13,13300000,-7.25810,-64.79750,60.00
283,CRISTO,00500 - ÁGUA E SOLO - Água e Solo Estudos e Projetos Ltda.,00001 - ANA - Agência Nacional de Águas ,LÁBREA-AM,RIO MUCUIM,RHN,Ativo,13885000,1,13,13360200,-7.46440,-64.24330,0.00
284,ARUMÃ - JUSANTE,00082 - CPRM - Cia de Pesquisa de Recursos Minerais,00001 - ANA - Agência Nacional de Águas ,BERURI-AM,RIO PURUS,RHN,Ativo,13962000,1,13,13300000,-4.72860,-62.14530,0.00
285,BERURI,00082 - CPRM - Cia de Pesquisa de Recursos Minerais,00001 - ANA - Agência Nacional de Águas ,BERURI-AM,RIO PURUS,RHN,Ativo,13990000,1,13,13300000,-3.89890,-61.37420,0.00
286,MITU AUTOMATICA,00907 - IDEAM-COLÔMBIA - IDEAM-COLÔMBIA,00907 - IDEAM-COLÔMBIA - IDEAM-COLÔMBIA,MITU-CO,RIO VAUPÉS/UAUPÉS,RHN,Ativo,14000900,1,14,14230000,1.25940,-70.23890,0.00
287,MANACAPURU,00082 - CPRM - Cia de Pesquisa de Recursos Minerais,00001 - ANA - Agência Nacional de Águas ,MANACAPURU-AM,RIO SOLIMÕES/AMAZONAS,CotaOnline,Ativo,14100000,1,14,10001000,-3.31060,-60.60940,0.00
288,MANACAPURU,00082 - CPRM - Cia de Pesquisa de Recursos Minerais,00001 - ANA - Agência Nacional de Águas ,MANACAPURU-AM,RIO SOLIMÕES/AMAZONAS,RHN,Ativo,14100000,1,14,10001000,-3.31060,-60.60940,0.00
289,CUCUÍ,00082 - CPRM - Cia de Pesquisa de Recursos Minerais,00001 - ANA - Agência Nacional de Águas ,SÃO GABRIEL DA CACHOEIRA-AM,RIO NEGRO,RHN,Ativo,14110000,1,14,14200000,1.21530,-66.85250,0.00
290,FAZENDA RECREIO,00389 - FEMARH-RR - Fundação Estadual do Meio Ambiente e Recursos...,00389 - FEMARH-RR - Fundação Estadual do Meio Ambiente e Recursos...,BOA VISTA-RR,RIO CAUAME,RHN,Ativo,14235200,1,14,14265100,2.86420,-60.75170,0.00
291,TARAQUÁ,00082 - CPRM - Cia de Pesquisa de Recursos Minerais,00001 - ANA - Agência Nacional de Águas ,SÃO GABRIEL DA CACHOEIRA-AM,RIO VAUPÉS/UAUPÉS,RHN,Ativo,14280001,1,14,14230000,0.13030,-68.53860,0.00
292,SÃO GABRIEL DA CACHOEIRA,00082 - CPRM - Cia de Pesquisa de Recursos Minerais,00001 - ANA - Agência Nacional de Águas ,SÃO GABRIEL DA CACHOEIRA-AM,RIO NEGRO,CotaOnline,Ativo,14320001,1,14,14200000,-0.13670,-67.08560,0.00
293,CURICURIARI,00082 - CPRM - Cia de Pesquisa de Recursos Minerais,00001 - ANA - Agência Nacional de Águas ,SÃO GABRIEL DA CACHOEIRA-AM,RIO NEGRO,RHN,Ativo,14330000,1,14,14200000,-0.20060,-66.80220,0.00
294,TAPURUQUARA,00082 - CPRM - Cia de Pesquisa de Recursos Minerais,00001 - ANA - Agência Nacional de Águas ,SANTA IZABEL DO RIO NEGRO-AM,RIO NEGRO,RHN,Ativo,14400000,1,14,14200000,-0.42030,-65.01530,0.00
295,TAPURUQUARA,00082 - CPRM - Cia de Pesquisa de Recursos Minerais,00001 - ANA - Agência Nacional de Águas ,SANTA IZABEL DO RIO NEGRO-AM,RIO NEGRO,CotaOnline,Ativo,14400000,1,14,14200000,-0.42030,-65.01530,0.00
296,SERRINHA,00082 - CPRM - Cia de Pesquisa de Recursos Minerais,00001 - ANA - Agência Nacional de Águas ,SANTA IZABEL DO RIO NEGRO-AM,RIO NEGRO,RHN,Ativo,14420000,1,14,14200000,-0.48190,-64.82890,0.00
297,BARCELOS,00082 - CPRM - Cia de Pesquisa de Recursos Minerais,00001 - ANA - Agência Nacional de Águas ,BARCELOS-AM,RIO NEGRO,RHN,Ativo,14480002,1,14,14200000,-0.96580,-62.93110,0.00
298,BARCELOS,00082 - CPRM - Cia de Pesquisa de Recursos Minerais,00001 - ANA - Agência Nacional de Águas ,BARCELOS-AM,RIO NEGRO,CotaOnline,Ativo,14480002,1,14,14200000,-0.96580,-62.93110,0.00
299,UAICÁS,00082 - CPRM - Cia de Pesquisa de Recursos Minerais,00001 - ANA - Agência Nacional de Águas ,ALTO ALEGRE-RR,RIO URARICOERA,RHN,Ativo,14488000,1,14,14261000,3.54970,-63.16920,0.00
300,MARACÁ,00082 - CPRM - Cia de Pesquisa de Recursos Minerais,00001 - ANA - Agência Nacional de Águas ,ALTO ALEGRE-RR,RIO URARICOERA,RHN,Ativo,14489000,1,14,14261000,3.35280,-61.42220,0.00
301,FAZENDA CAJUPIRANGA,00082 - CPRM - Cia de Pesquisa de Recursos Minerais,00001 - ANA - Agência Nacional de Águas ,ALTO ALEGRE-RR,RIO URARICOERA,RHN,Ativo,14495000,1,14,14261000,3.43810,-61.03670,0.00
302,MOCIDADE,00082 - CPRM - Cia de Pesquisa de Recursos Minerais,00001 - ANA - Agência Nacional de Águas ,BOA VISTA-RR,RIO URARICOERA,RHN,Ativo,14500000,1,14,14261000,3.46440,-60.90970,0.00
303,FAZENDA PASSARÃO,00082 - CPRM - Cia de Pesquisa de Recursos Minerais,00001 - ANA - Agência Nacional de Águas ,BOA VISTA-RR,RIO URARICOERA,RHN,Ativo,14515000,1,14,14261000,3.20780,-60.57110,0.00
304,RIO MAÚ,00389 - FEMARH-RR - Fundação Estadual do Meio Ambiente e Recursos...,00389 - FEMARH-RR - Fundação Estadual do Meio Ambiente e Recursos...,UIRAMUTA-RR,RIO MAÚ OU IRENG,RHN,Ativo,14526400,1,14,14263490,4.57610,-60.13970,0.00
305,PONTE DO TACUTU,00082 - CPRM - Cia de Pesquisa de Recursos Minerais,00001 - ANA - Agência Nacional de Águas ,NORMÂNDIA-RR,RIO TACUTU,RHN,Ativo,14527000,1,14,14263200,3.56750,-59.88830,0.00
306,VILA SURUMU,00082 - CPRM - Cia de Pesquisa de Recursos Minerais,00001 - ANA - Agência Nacional de Águas ,PACARAIMA-RR,RIO SURUMU,RHN,Ativo,14530000,1,14,14264000,4.19610,-60.79390,0.00
307,FAZENDA BANDEIRA BRANCA,00082 - CPRM - Cia de Pesquisa de Recursos Minerais,00001 - ANA - Agência Nacional de Águas ,UIRAMUTA-RR,RIO COTINGO,RHN,Ativo,14540000,1,14,14264200,4.63060,-60.47060,0.00
308,FAZENDA PARAÍSO,00082 - CPRM - Cia de Pesquisa de Recursos Minerais,00001 - ANA - Agência Nacional de Águas ,BONFIM-RR,RIO TACUTU,RHN,Ativo,14558000,1,14,14263200,3.31780,-60.34470,0.00
309,BOA VISTA,00082 - CPRM - Cia de Pesquisa de Recursos Minerais,00001 - ANA - Agência Nacional de Águas ,BOA VISTA-RR,RIO BRANCO,RHN,Ativo,14620000,1,14,14260000,2.82670,-60.65610,0.00
310,FÉ E ESPERANÇA,00082 - CPRM - Cia de Pesquisa de Recursos Minerais,00001 - ANA - Agência Nacional de Águas ,MUCAJAÍ-RR,RIO MUCAJAÍ,RHN,Ativo,14680001,1,14,14265400,2.87080,-61.44060,0.00
311,MUCAJAÍ,00082 - CPRM - Cia de Pesquisa de Recursos Minerais,00001 - ANA - Agência Nacional de Águas ,MUCAJAÍ-RR,RIO MUCAJAÍ,RHN,Ativo,14690000,1,14,14265400,2.47140,-60.91780,0.00
312,CARACARAÍ,00082 - CPRM - Cia de Pesquisa de Recursos Minerais,00001 - ANA - Agência Nacional de Águas ,CARACARAÍ-RR,RIO BRANCO,RHN,Ativo,14710000,1,14,14260000,1.82140,-61.12360,0.00
313,FAZENDA ANAUÁ,00082 - CPRM - Cia de Pesquisa de Recursos Minerais,00001 - ANA - Agência Nacional de Águas ,CARACARAÍ-RR,RIO ANAUA,RHN,Ativo,14740000,1,14,14266000,1.12920,-60.22360,0.00
314,SANTA MARIA DO BOIAÇU,00082 - CPRM - Cia de Pesquisa de Recursos Minerais,00001 - ANA - Agência Nacional de Águas ,RORAINÓPOLIS-RR,RIO BRANCO,RHN,Ativo,14790000,1,14,14260000,-0.50530,-61.78640,0.00
315,MOURA,00082 - CPRM - Cia de Pesquisa de Recursos Minerais,00001 - ANA - Agência Nacional de Águas ,BARCELOS-AM,RIO NEGRO,RHN,Ativo,14840000,1,14,14200000,-1.45670,-61.63470,0.00
316,BASE ALALAÚ,00082 - CPRM - Cia de Pesquisa de Recursos Minerais,00001 - ANA - Agência Nacional de Águas ,RORAINÓPOLIS-RR,RIO ALALAÚ,RHN,Ativo,14850000,1,14,14271200,-0.85860,-60.52000,59.00
317,MANAUS,00082 - CPRM - Cia de Pesquisa de Recursos Minerais,00001 - ANA - Agência Nacional de Águas ,MANAUS-AM,RIO NEGRO,RHN,Ativo,14990000,1,14,14200000,-3.13830,-60.02720,0.00
318,MANAUS,00082 - CPRM - Cia de Pesquisa de Recursos Minerais,00001 - ANA - Agência Nacional de Águas ,MANAUS-AM,RIO NEGRO,CotaOnline,Ativo,14990000,1,14,14200000,-3.13830,-60.02720,0.00
319,JATUARANA,00082 - CPRM - Cia de Pesquisa de Recursos Minerais,00001 - ANA - Agência Nacional de Águas ,MANAUS-AM,RIO SOLIMÕES/AMAZONAS,RHN,Ativo,15030000,1,15,10001000,-3.06330,-59.64780,0.00
320,CAREIRO,00082 - CPRM - Cia de Pesquisa de Recursos Minerais,00001 - ANA - Agência Nacional de Águas ,CAREIRO DA VÁRZEA-AM,PARANA DO CAREIRO,CotaOnline,Ativo,15040000,1,15,15100000,-3.19610,-59.83360,0.00
321,CAREIRO,00082 - CPRM - Cia de Pesquisa de Recursos Minerais,00001 - ANA - Agência Nacional de Águas ,CAREIRO DA VÁRZEA-AM,PARANA DO CAREIRO,RHN,Ativo,15040000,1,15,15100000,-3.19610,-59.83360,0.00
322,UHE GUAPORÉ MONTANTE 1,00803 - CONS.GUAPORÉ - Consórcio UHE Guaporé,00803 - CONS.GUAPORÉ - Consórcio UHE Guaporé,JAURU-MT,RIO GUAPORÉ,Setor Elétrico,Ativo,15043000,1,15,15210000,-15.05940,-58.91060,485.00
323,UHE GUAPORÉ BARRAMENTO,00803 - CONS.GUAPORÉ - Consórcio UHE Guaporé,00803 - CONS.GUAPORÉ - Consórcio UHE Guaporé,PONTES E LACERDA-MT,RIO GUAPORÉ,Setor Elétrico,Ativo,15044000,1,15,15210000,-15.12360,-58.96220,305.00
324,UHE GUAPORÉ JUSANTE,00803 - CONS.GUAPORÉ - Consórcio UHE Guaporé,00803 - CONS.GUAPORÉ - Consórcio UHE Guaporé,PONTES E LACERDA-MT,RIO GUAPORÉ,Setor Elétrico,Ativo,15044100,1,15,15210000,-15.13810,-58.98250,306.00
325,PCH NOVA GUAPORÉ BARRAMENTO,01078 - GUAPORÉ - Nova Guaporé Energética S.A.,01078 - GUAPORÉ - Nova Guaporé Energética S.A.,PONTES E LACERDA-MT,RIO GUAPORÉ,Setor Elétrico,Ativo,15045950,1,15,15210000,-15.20720,-59.01420,307.00
326,PCH NOVA GUAPORÉ JUSANTE,01078 - GUAPORÉ - Nova Guaporé Energética S.A.,01078 - GUAPORÉ - Nova Guaporé Energética S.A.,PONTES E LACERDA-MT,RIO GUAPORÉ,Setor Elétrico,Ativo,15046000,1,15,15210000,-15.21080,-59.01190,270.00
327,UHE GUAPORÉ CÓRREGO PALMITAL,00803 - CONS.GUAPORÉ - Consórcio UHE Guaporé,00803 - CONS.GUAPORÉ - Consórcio UHE Guaporé,VALE DE SÃO DOMINGOS-MT,CÓRREGO PALMITAL,Setor Elétrico,Ativo,15046050,1,15,15211050,-15.22060,-59.00280,830.00
328,PONTES E LACERDA,00091 - SEMA-MT - SEMA-MT,00091 - SEMA-MT - SEMA-MT,PONTES E LACERDA-MT,RIO GUAPORÉ,RHN,Ativo,15050001,1,15,15210000,-15.21530,-59.35390,0.00
329,PCH SALTO CORGÃO BARRAMENTO,00315 - GACEL - Galera Centrais Elétricas S.A-GACEL,00315 - GACEL - Galera Centrais Elétricas S.A-GACEL,NOVA LACERDA-MT,RIO CORGÃO,Setor Elétrico,Ativo,15120500,1,15,15213900,-14.44780,-59.48470,550.00
330,PCH SALTO CORGÃO JUSANTE,00315 - GACEL - Galera Centrais Elétricas S.A-GACEL,00315 - GACEL - Galera Centrais Elétricas S.A-GACEL,NOVA LACERDA-MT,RIO CORGÃO,Setor Elétrico,Ativo,15121000,1,15,15213900,-14.45750,-59.50860,0.00
331,PCH RIO PRATA JUSANTE,00703 - HIDREL COMODORO - Hidrelétrica Comodoro Ltda.,00703 - HIDREL COMODORO - Hidrelétrica Comodoro Ltda.,COMODORO-MT,RIO PRATA,Setor Elétrico,Ativo,15122000,1,15,15215900,-13.63000,-59.87610,463.00
332,PCH ESPERANÇA JUSANTE,00551 - ÁGUASCLARAS - Hidrelétrica Águas Claras Ltda.,00551 - ÁGUASCLARAS - Hidrelétrica Águas Claras Ltda.,COMODORO-MT,RIO PIOLHINHO,Setor Elétrico,Ativo,15123000,1,15,15216020,-13.78220,-59.79220,469.00
333,PCH CABIXI II BARRAMENTO,00686 - CASSOL - Cassol Centrais Elétricas Ltda.,00686 - CASSOL - Cassol Centrais Elétricas Ltda.,COMODORO-MT,RIO LAMBARI,Setor Elétrico,Ativo,15123080,1,15,15215500,-13.02060,-60.11140,508.00
334,PCH CABIXI II JUSANTE,00686 - CASSOL - Cassol Centrais Elétricas Ltda.,00686 - CASSOL - Cassol Centrais Elétricas Ltda.,COMODORO-MT,RIO LAMBARI,Setor Elétrico,Ativo,15123100,1,15,15215500,-13.02030,-60.13500,355.00
335,PCH CABIXI BARRAMENTO,00686 - CASSOL - Cassol Centrais Elétricas Ltda.,00686 - CASSOL - Cassol Centrais Elétricas Ltda.,VILHENA-RO,RIO CABIXI ou BRANCO,Setor Elétrico,Ativo,15123200,1,15,15216000,-12.95750,-60.13470,491.00
336,PCH CABIXI JUSANTE,00686 - CASSOL - Cassol Centrais Elétricas Ltda.,00686 - CASSOL - Cassol Centrais Elétricas Ltda.,VILHENA-RO,RIO CABIXI ou BRANCO,Setor Elétrico,Ativo,15123500,1,15,15216000,-12.96330,-60.14920,351.00
337,CABIXI,00082 - CPRM - Cia de Pesquisa de Recursos Minerais,00001 - ANA - Agência Nacional de Águas ,CABIXI-RO,RIO CABIXI ou BRANCO,RHN,Ativo,15124009,1,15,15216000,-13.51250,-60.53000,0.00
338,CGH RIO ENGANADO (CASTAMAN I) BARRAMENTO,00687 - RIO ENGANADO - Hidrelétrica Rio Enganado Ltda.,00687 - RIO ENGANADO - Hidrelétrica Rio Enganado Ltda.,COLORADO DO OESTE-RO,RIO ENGANADO,Setor Elétrico,Ativo,15128500,1,15,15216030,-13.07940,-60.62190,427.00
339,CGH RIO ENGANADO (CASTAMAN I) JUSANTE,00687 - RIO ENGANADO - Hidrelétrica Rio Enganado Ltda.,00687 - RIO ENGANADO - Hidrelétrica Rio Enganado Ltda.,COLORADO DO OESTE-RO,RIO ENGANADO,Setor Elétrico,Ativo,15128800,1,15,15216030,-13.09000,-60.62190,349.00
340,CGH CASTAMAN III BARRAMENTO,00159 - CASTAMAN - Castaman Centrais Elétricas Ltda.,00159 - CASTAMAN - Castaman Centrais Elétricas Ltda.,COLORADO DO OESTE-RO,RIO ENGANADO,Setor Elétrico,Ativo,15128950,1,15,15216030,-13.13720,-60.64000,302.00
341,CGH CASTAMAN III JUSANTE,00159 - CASTAMAN - Castaman Centrais Elétricas Ltda.,00159 - CASTAMAN - Castaman Centrais Elétricas Ltda.,COLORADO DO OESTE-RO,RIO ENGANADO,Setor Elétrico,Ativo,15129000,1,15,15216030,-13.15220,-60.65690,268.00
342,PIMENTEIRAS,00082 - CPRM - Cia de Pesquisa de Recursos Minerais,00001 - ANA - Agência Nacional de Águas ,PIMENTEIRAS DO OESTE-RO,RIO GUAPORÉ,RHN,Ativo,15130000,1,15,15210000,-13.48580,-61.05000,0.00
343,CORUMBIARA,00082 - CPRM - Cia de Pesquisa de Recursos Minerais,00001 - ANA - Agência Nacional de Águas ,CORUMBIARA-RO,RIO CORUMBIARA ANTIGO,RHN,Ativo,15135000,1,15,15216100,-12.95170,-60.82030,0.00
344,"PCH SANTA LUZIA D""OESTE RIO BRANCO",00559 - BERGAMIN - Hidroelétrica Bergamin Ltda.,00559 - BERGAMIN - Hidroelétrica Bergamin Ltda.,ALTO ALEGRE DOS PARECIS-RO,RIO BRANCO,Setor Elétrico,Ativo,15138000,1,15,15216300,-12.38420,-61.71060,406.00
345,"PCH SANTA LUZIA D""OESTE MONTANTE",00559 - BERGAMIN - Hidroelétrica Bergamin Ltda.,00559 - BERGAMIN - Hidroelétrica Bergamin Ltda.,ALTO ALEGRE DOS PARECIS-RO,RIO COLORADO,Setor Elétrico,Ativo,15143000,1,15,15216250,-12.38000,-61.74970,367.00
346,"PCH SANTA LUZIA D""OESTE JUSANTE",00559 - BERGAMIN - Hidroelétrica Bergamin Ltda.,00559 - BERGAMIN - Hidroelétrica Bergamin Ltda.,ALTO ALEGRE DOS PARECIS-RO,RIO COLORADO,Setor Elétrico,Ativo,15145000,1,15,15216250,-12.34560,-61.76970,212.00
347,PEDRAS NEGRAS,00082 - CPRM - Cia de Pesquisa de Recursos Minerais,00001 - ANA - Agência Nacional de Águas ,COSTA MARQUES-RO,RIO GUAPORÉ,RHN,Ativo,15150000,1,15,15210000,-12.85140,-62.89920,152.00
348,CGH ALTOÉ II BARRAMENTO,00225 - ALTOÉ - Hidroelétrica Altoé Ltda.,00225 - ALTOÉ - Hidroelétrica Altoé Ltda.,CEREJEIRAS-RO,RIO SÃO JOÃO,Setor Elétrico,Ativo,15150300,1,15,15240598,-12.55080,-61.53000,403.00
349,CGH ALTOÉ II JUSANTE,00225 - ALTOÉ - Hidroelétrica Altoé Ltda.,00225 - ALTOÉ - Hidroelétrica Altoé Ltda.,PARECIS-RO,RIO SÃO JOÃO,Setor Elétrico,Ativo,15150500,1,15,15240598,-12.58140,-61.52420,210.00
350,PCH ALTA FLORESTA MONTANTE 2,00233 - ELETRON - Eletricidade de Rondônia Ltda-ELETRON,00233 - ELETRON - Eletricidade de Rondônia Ltda-ELETRON,ALTA FLORESTA D''OESTE-RO,RIO BRANCO,Setor Elétrico,Ativo,15150800,1,15,15216300,-11.96890,-61.99080,331.00
351,PCH ALTA FLORESTA MONTANTE 1,00233 - ELETRON - Eletricidade de Rondônia Ltda-ELETRON,00233 - ELETRON - Eletricidade de Rondônia Ltda-ELETRON,ALTA FLORESTA D''OESTE-RO,RIO BRANCO,Setor Elétrico,Ativo,15151000,1,15,15216300,-11.95310,-62.01250,316.00
352,PCH ALTA FLORESTA BARRAMENTO,00233 - ELETRON - Eletricidade de Rondônia Ltda-ELETRON,00233 - ELETRON - Eletricidade de Rondônia Ltda-ELETRON,ALTA FLORESTA D''OESTE-RO,RIO BRANCO,Setor Elétrico,Ativo,15151500,1,15,15216300,-11.93830,-62.04030,316.00
353,PCH ÂNGELO CASSOL BARRAMENTO,00768 - ÂNGELO CASSOL - Hidroelétrica Ângelo Cassol Ltda.,00768 - ÂNGELO CASSOL - Hidroelétrica Ângelo Cassol Ltda.,ALTA FLORESTA D''OESTE-RO,RIO BRANCO,Setor Elétrico,Ativo,15152000,1,15,15216300,-11.93080,-62.10360,275.00
354,PCH ÂNGELO CASSOL JUSANTE,00768 - ÂNGELO CASSOL - Hidroelétrica Ângelo Cassol Ltda.,00768 - ÂNGELO CASSOL - Hidroelétrica Ângelo Cassol Ltda.,ALTA FLORESTA D''OESTE-RO,RIO BRANCO,Setor Elétrico,Ativo,15152500,1,15,15216300,-11.92940,-62.10810,278.00
355,PCH CACHOEIRA CACHIMBO ALTO BARRAMENTO,00769 - CACHIMBO ALTO - Hidroelétrica Cachimbo Alto Ltda.,00769 - CACHIMBO ALTO - Hidroelétrica Cachimbo Alto Ltda.,ALTA FLORESTA D''OESTE-RO,RIO BRANCO,Setor Elétrico,Ativo,15169000,1,15,15216300,-11.92530,-62.14670,254.00
356,CACHOEIRA DO CACHIMBO,00082 - CPRM - Cia de Pesquisa de Recursos Minerais,00001 - ANA - Agência Nacional de Águas ,ALTA FLORESTA D''OESTE-RO,RIO BRANCO,RHN,Ativo,15170000,1,15,15216300,-11.93060,-62.15280,0.00
357,PCH CACHOEIRA CACHIMBO ALTO JUSANTE,00769 - CACHIMBO ALTO - Hidroelétrica Cachimbo Alto Ltda.,00769 - CACHIMBO ALTO - Hidroelétrica Cachimbo Alto Ltda.,ALTA FLORESTA D''OESTE-RO,RIO BRANCO,Setor Elétrico,Ativo,15170200,1,15,15216300,-11.92720,-62.15470,238.00
358,PCH RIO BRANCO BARRAMENTO,00564 - HIDROSSOL - Hidrossol Hidroelétricas Cassol Ltda.,00564 - HIDROSSOL - Hidrossol Hidroelétricas Cassol Ltda.,ALTA FLORESTA D''OESTE-RO,RIO BRANCO,Setor Elétrico,Ativo,15170600,1,15,15216300,-11.91110,-62.18110,214.00
359,PCH RIO BRANCO JUSANTE,00564 - HIDROSSOL - Hidrossol Hidroelétricas Cassol Ltda.,00564 - HIDROSSOL - Hidrossol Hidroelétricas Cassol Ltda.,ALTA FLORESTA D''OESTE-RO,RIO BRANCO,Setor Elétrico,Ativo,15170700,1,15,15216300,-11.90610,-62.18420,204.00
360,PCH FIGUEIRA MONTANTE,00306 - PCH FIGUEIRA - Consórcio PCH Figueira,00306 - PCH FIGUEIRA - Consórcio PCH Figueira,ALTA FLORESTA D''OESTE-RO,RIO SALDANHA,Setor Elétrico,Ativo,15170900,1,15,15216500,-12.05220,-62.17030,392.00
361,PCH FIGUEIRA BARRAMENTO,00306 - PCH FIGUEIRA - Consórcio PCH Figueira,00306 - PCH FIGUEIRA - Consórcio PCH Figueira,ALTA FLORESTA D''OESTE-RO,RIO SALDANHA,Setor Elétrico,Ativo,15171000,1,15,15216500,-11.99580,-62.17170,384.00
362,PCH FIGUEIRA JUSANTE,00306 - PCH FIGUEIRA - Consórcio PCH Figueira,00306 - PCH FIGUEIRA - Consórcio PCH Figueira,ALTA FLORESTA D''OESTE-RO,RIO SALDANHA,Setor Elétrico,Ativo,15171050,1,15,15216500,-11.98750,-62.17640,372.00
363,PCH SALDANHA JUSANTE,01109 - HIDROLUZ - Hidroluz Centrais Elétricas Ltda.,01109 - HIDROLUZ - Hidroluz Centrais Elétricas Ltda.,ALTA FLORESTA D''OESTE-RO,RIO SALDANHA,Setor Elétrico,Ativo,15171100,1,15,15216500,-11.95610,-62.18060,311.00
364,PCH MONTE BELO BARRAMENTO,00307 - ELETROSSOL - Centrais Elétricas Cassol  Ltda.-ELETROSSOL,00307 - ELETROSSOL - Centrais Elétricas Cassol  Ltda.-ELETROSSOL,ALTA FLORESTA D''OESTE-RO,RIO SALDANHA,Setor Elétrico,Ativo,15171800,1,15,15216500,-11.93360,-62.17920,292.00
365,PCH MONTE BELO JUSANTE,00307 - ELETROSSOL - Centrais Elétricas Cassol  Ltda.-ELETROSSOL,00307 - ELETROSSOL - Centrais Elétricas Cassol  Ltda.-ELETROSSOL,ALTA FLORESTA D''OESTE-RO,RIO SALDANHA,Setor Elétrico,Ativo,15172000,1,15,15216500,-11.92750,-62.18360,246.00
366,PRINCIPE DA BEIRA,00082 - CPRM - Cia de Pesquisa de Recursos Minerais,00001 - ANA - Agência Nacional de Águas ,COSTA MARQUES-RO,RIO GUAPORÉ,RHN,Ativo,15200000,1,15,15210000,-12.42670,-64.42530,0.00
367,UHE JIRAU PRÍNCIPE DA BEIRA,00342 - ESBR - Energia Sustentável do Brasil S.A,00342 - ESBR - Energia Sustentável do Brasil S.A,COSTA MARQUES-RO,RIO GUAPORÉ,Setor Elétrico,Ativo,15200010,1,15,15210000,-12.42670,-64.42530,210.00
368,BOCA DO POMPEU - JUSANTE,00082 - CPRM - Cia de Pesquisa de Recursos Minerais,00001 - ANA - Agência Nacional de Águas ,GUAJARÁ-MIRIM-RO,RIO OURO PRETO,RHN,Ativo,15248010,1,15,15221400,-10.91750,-65.04330,0.00
369,GUAJARÁ-MIRIM,00082 - CPRM - Cia de Pesquisa de Recursos Minerais,00001 - ANA - Agência Nacional de Águas ,GUAJARÁ-MIRIM-RO,RIO MAMORÉ,RHN,Ativo,15250000,1,15,15201000,-10.79250,-65.34780,109.00
370,GUAJARÁ-MIRIM,00082 - CPRM - Cia de Pesquisa de Recursos Minerais,00001 - ANA - Agência Nacional de Águas ,GUAJARÁ-MIRIM-RO,RIO MAMORÉ,CotaOnline,Ativo,15250000,1,15,15201000,-10.79250,-65.34780,109.00
371,UHE JIRAU GUAJARÁ-MIRIM,00342 - ESBR - Energia Sustentável do Brasil S.A,00342 - ESBR - Energia Sustentável do Brasil S.A,GUAJARÁ-MIRIM-RO,RIO MAMORÉ,Setor Elétrico,Ativo,15250001,1,15,15201000,-10.72610,-65.34780,147.00
372,SALVACION,00906 - SENAMHI-PERU - SENAMHI-PERU,00906 - SENAMHI-PERU - SENAMHI-PERU,PERU-PU,RIO MADRE DE DIOS,RHN,Ativo,15307000,1,15,15200100,-12.83330,-71.50000,520.00
373,PAKITZA,00906 - SENAMHI-PERU - SENAMHI-PERU,00906 - SENAMHI-PERU - SENAMHI-PERU,PERU-PU,RIO MADRE DE DIOS,RHN,Ativo,15308000,1,15,15200100,-11.95000,-71.28330,319.00
374,UHE JIRAU JUSANTE RIO BENI,00342 - ESBR - Energia Sustentável do Brasil S.A,00342 - ESBR - Energia Sustentável do Brasil S.A,NOVA MAMORE-RO,RIO MADEIRA,Setor Elétrico,Ativo,15318000,1,15,15200000,-10.35690,-65.36140,130.00
375,ABUNÃ,00082 - CPRM - Cia de Pesquisa de Recursos Minerais,00001 - ANA - Agência Nacional de Águas ,PORTO VELHO-RO,RIO MADEIRA,CotaOnline,Ativo,15320002,1,15,15200000,-9.70530,-65.36670,74.65
376,ABUNÃ,00082 - CPRM - Cia de Pesquisa de Recursos Minerais,00001 - ANA - Agência Nacional de Águas ,PORTO VELHO-RO,RIO MADEIRA,RHN,Ativo,15320002,1,15,15200000,-9.70530,-65.36670,74.65
377,PLÁCIDO DE CASTRO,00082 - CPRM - Cia de Pesquisa de Recursos Minerais,00001 - ANA - Agência Nacional de Águas ,PLÁCIDO DE CASTRO-AC,RIO ABUNÃ,RHN,Ativo,15324000,1,15,15223000,-10.33780,-67.18310,0.00
378,UHE JIRAU NOVA CALIFORNIA,00342 - ESBR - Energia Sustentável do Brasil S.A,00342 - ESBR - Energia Sustentável do Brasil S.A,PORTO VELHO-RO,RIO ABUNÃ,Setor Elétrico,Ativo,15324500,1,15,15223000,-9.89360,-66.61860,115.00
379,MORADA NOVA - JUSANTE,00082 - CPRM - Cia de Pesquisa de Recursos Minerais,00001 - ANA - Agência Nacional de Águas ,PORTO VELHO-RO,RIO ABUNÃ,RHN,Ativo,15326000,1,15,15223000,-9.78470,-65.52750,0.00
380,MORADA NOVA - JUSANTE,00082 - CPRM - Cia de Pesquisa de Recursos Minerais,00001 - ANA - Agência Nacional de Águas ,PORTO VELHO-RO,RIO ABUNÃ,CotaOnline,Ativo,15326000,1,15,15223000,-9.78470,-65.52750,0.00
381,UHE JIRAU MORADA NOVA JUSANTE,00342 - ESBR - Energia Sustentável do Brasil S.A,00342 - ESBR - Energia Sustentável do Brasil S.A,PORTO VELHO-RO,RIO ABUNÃ,Setor Elétrico,Ativo,15326010,1,15,15223000,-9.78470,-65.52750,110.00
382,UHE JIRAU VELHA MUTUM-PARANÁ,00342 - ESBR - Energia Sustentável do Brasil S.A,00342 - ESBR - Energia Sustentável do Brasil S.A,PORTO VELHO-RO,RIO MUTUM-PARANA,Setor Elétrico,Ativo,15335000,1,15,15224100,-9.61750,-64.93310,92.38
383,UHE JIRAU RESERVATÓRIO,00342 - ESBR - Energia Sustentável do Brasil S.A,00342 - ESBR - Energia Sustentável do Brasil S.A,PORTO VELHO-RO,RIO MADEIRA,Setor Elétrico,Ativo,15340300,1,15,15200000,-9.28280,-64.67280,0.00
384,UHE JIRAU BARRAMENTO,00342 - ESBR - Energia Sustentável do Brasil S.A,00342 - ESBR - Energia Sustentável do Brasil S.A,PORTO VELHO-RO,RIO MADEIRA,Setor Elétrico,Ativo,15340500,1,15,15200000,-9.25030,-64.64830,69.00
385,UHE JIRAU PORTO R4,00342 - ESBR - Energia Sustentável do Brasil S.A,00342 - ESBR - Energia Sustentável do Brasil S.A,PORTO VELHO-RO,RIO MADEIRA,Setor Elétrico,Ativo,15340600,1,15,15200000,-9.24860,-64.62640,74.00
386,UHE SANTO ANTÔNIO JUSANTE CALDEIRÃO DO INFERNO,00354 - SANTO ANTÔNIO - Santo Antônio Energia S.A,00354 - SANTO ANTÔNIO - Santo Antônio Energia S.A,PORTO VELHO-RO,RIO MADEIRA,Setor Elétrico,Ativo,15341000,1,15,15200000,-9.20280,-64.60860,73.75
387,UHE SANTO ANTÔNIO MONTANTE JACIPARANÁ,00354 - SANTO ANTÔNIO - Santo Antônio Energia S.A,00354 - SANTO ANTÔNIO - Santo Antônio Energia S.A,PORTO VELHO-RO,RIO JACIPARANÁ,Setor Elétrico,Ativo,15344000,1,15,15240200,-9.50110,-64.38170,77.90
388,UHE SANTO ANTÔNIO JACIPARANÁ VILA,00354 - SANTO ANTÔNIO - Santo Antônio Energia S.A,00354 - SANTO ANTÔNIO - Santo Antônio Energia S.A,PORTO VELHO-RO,RIO JACIPARANÁ,Setor Elétrico,Ativo,15345900,1,15,15240200,-9.26170,-64.40140,73.24
389,UHE SANTO ANTÔNIO RESERVATÓRIO,00354 - SANTO ANTÔNIO - Santo Antônio Energia S.A,00354 - SANTO ANTÔNIO - Santo Antônio Energia S.A,PORTO VELHO-RO,RIO MADEIRA,Setor Elétrico,Ativo,15350500,1,15,15200000,-8.84190,-63.99500,0.00
390,UHE SANTO ANTÔNIO MONTANTE,00354 - SANTO ANTÔNIO - Santo Antônio Energia S.A,00354 - SANTO ANTÔNIO - Santo Antônio Energia S.A,PORTO VELHO-RO,RIO MADEIRA,Setor Elétrico,Ativo,15360000,1,15,15200000,-8.79670,-63.95830,0.00
391,UHE SANTO ANTÔNIO JUSANTE R-7,00354 - SANTO ANTÔNIO - Santo Antônio Energia S.A,00354 - SANTO ANTÔNIO - Santo Antônio Energia S.A,PORTO VELHO-RO,RIO MADEIRA,Setor Elétrico,Ativo,15380000,1,15,15200000,-8.78220,-63.93030,60.68
392,UHE SANTO ANTÔNIO PORTO VELHO,00354 - SANTO ANTÔNIO - Santo Antônio Energia S.A,00354 - SANTO ANTÔNIO - Santo Antônio Energia S.A,PORTO VELHO-RO,RIO MADEIRA,Setor Elétrico,Ativo,15390000,1,15,15200000,-8.74810,-63.91580,63.66
393,PORTO VELHO,00082 - CPRM - Cia de Pesquisa de Recursos Minerais,00001 - ANA - Agência Nacional de Águas ,PORTO VELHO-RO,RIO MADEIRA,RHN,Ativo,15400000,1,15,15200000,-8.74830,-63.91690,42.88
394,PORTO VELHO,00082 - CPRM - Cia de Pesquisa de Recursos Minerais,00001 - ANA - Agência Nacional de Águas ,PORTO VELHO-RO,RIO MADEIRA,CotaOnline,Ativo,15400000,1,15,15200000,-8.74830,-63.91690,42.88
395,PCH SANTA CRUZ DE MONTE NEGRO MONTANTE 2,00362 - CANAÃ - Canaã Geração de Energia S.A.,00362 - CANAÃ - Canaã Geração de Energia S.A.,MONTE NEGRO-RO,IGARAPÉ NOVA FLORESTA,Setor Elétrico,Ativo,15405000,1,15,15230100,-10.47190,-63.25940,146.00
396,PCH SANTA CRUZ DE MONTE NEGRO MONTANTE 1,00362 - CANAÃ - Canaã Geração de Energia S.A.,00362 - CANAÃ - Canaã Geração de Energia S.A.,MONTE NEGRO-RO,RIO JAMARI,Setor Elétrico,Ativo,15406000,1,15,15230000,-10.43750,-63.23580,144.00
397,PCH SANTA CRUZ DE MONTE NEGRO BARRAMENTO,00362 - CANAÃ - Canaã Geração de Energia S.A.,00362 - CANAÃ - Canaã Geração de Energia S.A.,MONTE NEGRO-RO,RIO JAMARI,Setor Elétrico,Ativo,15408600,1,15,15230000,-10.23030,-63.23110,128.00
398,PCH SANTA CRUZ DE MONTE NEGRO JUSANTE,00362 - CANAÃ - Canaã Geração de Energia S.A.,00362 - CANAÃ - Canaã Geração de Energia S.A.,MONTE NEGRO-RO,RIO JAMARI,Setor Elétrico,Ativo,15408700,1,15,15230000,-10.20560,-63.11140,117.00
399,PCH CANAÃ MONTANTE 2,00362 - CANAÃ - Canaã Geração de Energia S.A.,00362 - CANAÃ - Canaã Geração de Energia S.A.,ARIQUEMES-RO,RIO PARDO OU URURAM,Setor Elétrico,Ativo,15413000,1,15,15230700,-10.25420,-62.98940,134.00
400,PCH JAMARI RIO CANAÃ,00362 - CANAÃ - Canaã Geração de Energia S.A.,00362 - CANAÃ - Canaã Geração de Energia S.A.,ARIQUEMES-RO,RIO CANAÃ,Setor Elétrico,Ativo,15413100,1,15,15230050,-10.20500,-63.11110,114.00
401,PCH CANAÃ MONTANTE 1,00362 - CANAÃ - Canaã Geração de Energia S.A.,00362 - CANAÃ - Canaã Geração de Energia S.A.,ARIQUEMES-RO,RIO QUATRO CACHOEIRAS,Setor Elétrico,Ativo,15414000,1,15,15230710,-10.08310,-62.99750,117.00
402,PCH CANAÃ BARRAMENTO,00362 - CANAÃ - Canaã Geração de Energia S.A.,00362 - CANAÃ - Canaã Geração de Energia S.A.,ARIQUEMES-RO,RIO CANAÃ,Setor Elétrico,Ativo,15417980,1,15,15230050,-10.01940,-63.06060,115.00
403,PCH CANAÃ JUSANTE,00362 - CANAÃ - Canaã Geração de Energia S.A.,00362 - CANAÃ - Canaã Geração de Energia S.A.,ARIQUEMES-RO,RIO CANAÃ,Setor Elétrico,Ativo,15418000,1,15,15230050,-10.01830,-63.06220,108.00
404,PCH JAMARI BARRAMENTO,00362 - CANAÃ - Canaã Geração de Energia S.A.,00362 - CANAÃ - Canaã Geração de Energia S.A.,ARIQUEMES-RO,RIO JAMARI,Setor Elétrico,Ativo,15423980,1,15,15230000,-9.93810,-63.07720,112.00
405,PCH JAMARI JUSANTE 1,00362 - CANAÃ - Canaã Geração de Energia S.A.,00362 - CANAÃ - Canaã Geração de Energia S.A.,ARIQUEMES-RO,RIO JAMARI,Setor Elétrico,Ativo,15424000,1,15,15230000,-9.93470,-63.07560,111.00
406,ARIQUEMES,00082 - CPRM - Cia de Pesquisa de Recursos Minerais,00001 - ANA - Agência Nacional de Águas ,ARIQUEMES-RO,RIO JAMARI,CotaOnline,Ativo,15430000,1,15,15230000,-9.92560,-63.07140,87.67
407,ARIQUEMES,00082 - CPRM - Cia de Pesquisa de Recursos Minerais,00001 - ANA - Agência Nacional de Águas ,ARIQUEMES-RO,RIO JAMARI,RHN,Ativo,15430000,1,15,15230000,-9.92560,-63.07140,87.67
408,UHE SAMUEL RIO BRANCO,00075 - ELETRONORTE - ELETRONORTE,00075 - ELETRONORTE - ELETRONORTE,ARIQUEMES-RO,RIO BRANCO,Setor Elétrico,Ativo,15430900,1,15,15227700,-9.88670,-62.98470,0.00
409,UHE SAMUEL RIO MASSANGANA,00075 - ELETRONORTE - ELETRONORTE,00075 - ELETRONORTE - ELETRONORTE,ALTO PARAÍSO-RO,RIO MASSANGANA,Setor Elétrico,Ativo,15431900,1,15,15230900,-9.76030,-63.28810,0.00
410,PCH JAMARI JUSANTE 2,00362 - CANAÃ - Canaã Geração de Energia S.A.,00362 - CANAÃ - Canaã Geração de Energia S.A.,ALTO PARAÍSO-RO,RIO JAMARI,Setor Elétrico,Ativo,15444000,1,15,15230000,-9.66530,-63.13610,96.00
411,UHE SAMUEL RIO PRETO DO CRESPO,00075 - ELETRONORTE - ELETRONORTE,00075 - ELETRONORTE - ELETRONORTE,RIO CRESPO-RO,RIO PRETO DO CRESPO,Setor Elétrico,Ativo,15444900,1,15,15231100,-9.55640,-62.95060,0.00
412,UHE SAMUEL BARRAMENTO,00075 - ELETRONORTE - ELETRONORTE,00075 - ELETRONORTE - ELETRONORTE,CANDÉIAS DO JAMARI-RO,RIO JAMARI,Setor Elétrico,Ativo,15459080,1,15,15230000,-8.75250,-63.45500,0.00
413,UHE SAMUEL JUSANTE,00075 - ELETRONORTE - ELETRONORTE,00075 - ELETRONORTE - ELETRONORTE,CANDÉIAS DO JAMARI-RO,RIO JAMARI,Setor Elétrico,Ativo,15459090,1,15,15230000,-8.74690,-63.46360,0.00
414,PROSPERIDADE (EX. FOZ DO JAMARI),00082 - CPRM - Cia de Pesquisa de Recursos Minerais,00001 - ANA - Agência Nacional de Águas ,PORTO VELHO-RO,RIO MADEIRA,RHN,Ativo,15490000,1,15,15200000,-8.45220,-63.51780,40.00
415,SÃO CARLOS,00003 - DNIT - DNIT,00003 - DNIT - DNIT,PORTO VELHO-RO,RIO MADEIRA,RHN,Ativo,15490200,1,15,15200000,-8.42580,-63.48360,38.00
416,UHE SANTO ANTÔNIO SÃO CARLOS,00354 - SANTO ANTÔNIO - Santo Antônio Energia S.A,00354 - SANTO ANTÔNIO - Santo Antônio Energia S.A,PORTO VELHO-RO,RIO MADEIRA,Setor Elétrico,Ativo,15490400,1,15,15200000,-8.44440,-63.50810,55.96
417,PORTO VELHO,00003 - DNIT - DNIT,00003 - DNIT - DNIT,PORTO VELHO-RO,RIO MADEIRA,RHN,Ativo,15490600,1,15,15200000,-8.58440,-63.73310,41.00
418,SANTA ISABEL,00082 - CPRM - Cia de Pesquisa de Recursos Minerais,00001 - ANA - Agência Nacional de Águas ,CANDÉIAS DO JAMARI-RO,RIO CANDEIAS,RHN,Ativo,15550000,1,15,15232000,-8.79860,-63.71060,0.00
419,PCH CACHOEIRA MONTANTE,00351 - JFG - JFG Energia S.A,00351 - JFG - JFG Energia S.A,VILHENA-RO,RIO AVILA,Setor Elétrico,Ativo,15552005,1,15,15240307,-12.50560,-60.47190,404.73
420,PCH CACHOEIRA BARRAMENTO,00351 - JFG - JFG Energia S.A,00351 - JFG - JFG Energia S.A,VILHENA-RO,RIO AVILA,Setor Elétrico,Ativo,15552008,1,15,15240307,-12.50420,-60.47140,404.94
421,UHE RONDON II MONTANTE 2,00158 - ELETROGOES S/A - Eletrogoes S.A,00158 - ELETROGOES S/A - Eletrogoes S.A,PIMENTA BUENO-RO,RIO COMEMORAÇÃO,Setor Elétrico,Ativo,15552540,1,15,15240400,-12.39080,-60.48810,291.50
422,UHE RONDON II MONTANTE 1,00158 - ELETROGOES S/A - Eletrogoes S.A,00158 - ELETROGOES S/A - Eletrogoes S.A,PIMENTA BUENO-RO,RIO COMEMORAÇÃO,Setor Elétrico,Ativo,15552560,1,15,15240400,-12.18530,-60.59970,272.39
423,UHE RONDON II RESERVATÓRIO,00158 - ELETROGOES S/A - Eletrogoes S.A,00158 - ELETROGOES S/A - Eletrogoes S.A,PIMENTA BUENO-RO,RIO COMEMORAÇÃO,Setor Elétrico,Ativo,15552565,1,15,15240400,-12.00420,-60.68390,269.00
424,UHE RONDON II BARRAMENTO,00158 - ELETROGOES S/A - Eletrogoes S.A,00158 - ELETROGOES S/A - Eletrogoes S.A,PIMENTA BUENO-RO,RIO COMEMORAÇÃO,Setor Elétrico,Ativo,15552570,1,15,15240400,-11.99530,-60.69690,272.92
425,UHE RONDON II JUSANTE,00158 - ELETROGOES S/A - Eletrogoes S.A,00158 - ELETROGOES S/A - Eletrogoes S.A,PIMENTA BUENO-RO,RIO COMEMORAÇÃO,Setor Elétrico,Ativo,15552580,1,15,15240400,-11.95920,-60.70220,211.09
426,FAZENDA FLOR DO CAMPO,00082 - CPRM - Cia de Pesquisa de Recursos Minerais,00001 - ANA - Agência Nacional de Águas ,PIMENTA BUENO-RO,RIO COMEMORAÇÃO,RHN,Ativo,15552600,1,15,15240400,-11.74890,-60.86780,185.00
427,CGH MARCOL BARRAMENTO,00587 - MARCOL - Madeireira Rio Colorado Ltda.-MARCOL,00587 - MARCOL - Madeireira Rio Colorado Ltda.-MARCOL,VILHENA-RO,RIO APEDIA  ou PIMENTA BUENO,Setor Elétrico,Ativo,15552800,1,15,15240310,-12.85390,-60.32920,289.00
428,CGH MARCOL JUSANTE,00587 - MARCOL - Madeireira Rio Colorado Ltda.-MARCOL,00587 - MARCOL - Madeireira Rio Colorado Ltda.-MARCOL,VILHENA-RO,RIO APEDIA  ou PIMENTA BUENO,Setor Elétrico,Ativo,15552900,1,15,15240310,-12.85500,-60.33030,373.00
429,PCH CASCATA CHUPINGUAIA MONTANTE,00561 - CHUPINGUAIA - Hidroelétrica Chupinguaia Ltda.,00561 - CHUPINGUAIA - Hidroelétrica Chupinguaia Ltda.,CHUPINGUAIA-RO,RIO APEDIA  ou PIMENTA BUENO,Setor Elétrico,Ativo,15553100,1,15,15240310,-12.75610,-60.80830,288.00
430,PCH CASCATA CHUPINGUAIA BARRAMENTO,00561 - CHUPINGUAIA - Hidroelétrica Chupinguaia Ltda.,00561 - CHUPINGUAIA - Hidroelétrica Chupinguaia Ltda.,CHUPINGUAIA-RO,RIO APEDIA  ou PIMENTA BUENO,Setor Elétrico,Ativo,15553150,1,15,15240310,-12.70280,-60.88310,258.00
431,PCH CASCATA CHUPINGUAIA CÂMARA DE CARGA,00561 - CHUPINGUAIA - Hidroelétrica Chupinguaia Ltda.,00561 - CHUPINGUAIA - Hidroelétrica Chupinguaia Ltda.,CHUPINGUAIA-RO,RIO APEDIA  ou PIMENTA BUENO,Setor Elétrico,Ativo,15553160,1,15,15240310,-12.69280,-60.88080,265.00
432,PCH CASCATA CHUPINGUAIA JUSANTE,00561 - CHUPINGUAIA - Hidroelétrica Chupinguaia Ltda.,00561 - CHUPINGUAIA - Hidroelétrica Chupinguaia Ltda.,CHUPINGUAIA-RO,RIO APEDIA  ou PIMENTA BUENO,Setor Elétrico,Ativo,15553180,1,15,15240310,-12.69000,-60.88310,269.00
433,PCH CHUPINGUAIA MONTANTE,00668 - USINACACHOEIRA - Usina Hidrelétrica Cachoeira Ltda.,00668 - USINACACHOEIRA - Usina Hidrelétrica Cachoeira Ltda.,CHUPINGUAIA-RO,RIO CHUPINGUAIA,Setor Elétrico,Ativo,15553200,1,15,15240312,-12.59500,-60.88310,300.19
434,PCH CHUPINGUAIA BARRAMENTO,00668 - USINACACHOEIRA - Usina Hidrelétrica Cachoeira Ltda.,00668 - USINACACHOEIRA - Usina Hidrelétrica Cachoeira Ltda.,CHUPINGUAIA-RO,RIO CHUPINGUAIA,Setor Elétrico,Ativo,15553300,1,15,15240312,-12.58810,-60.93390,295.51
435,PCH CHUPINGUAIA JUSANTE,00668 - USINACACHOEIRA - Usina Hidrelétrica Cachoeira Ltda.,00668 - USINACACHOEIRA - Usina Hidrelétrica Cachoeira Ltda.,CHUPINGUAIA-RO,RIO CHUPINGUAIA,Setor Elétrico,Ativo,15553350,1,15,15240312,-12.58690,-60.93530,266.87
436,PCH PRIMAVERA MONTANTE 2,00290 - ELETROCESAR - Eletro Cesar Geração de Energia Ltda,00290 - ELETROCESAR - Eletro Cesar Geração de Energia Ltda,PRIMAVERA DE RONDÔNIA-RO,RIO APEDIA  ou PIMENTA BUENO,Setor Elétrico,Ativo,15553800,1,15,15240310,-12.26780,-61.07560,214.00
437,PCH CESAR FILHO BARRAMENTO,00530 - C TABOCA - Centrais Elétricas Taboca Ltda.,00530 - C TABOCA - Centrais Elétricas Taboca Ltda.,CHUPINGUAIA-RO,RIO TABOCA,Setor Elétrico,Ativo,15553900,1,15,15240309,-12.27080,-61.18720,276.00
438,PCH CESAR FILHO JUSANTE,00530 - C TABOCA - Centrais Elétricas Taboca Ltda.,00530 - C TABOCA - Centrais Elétricas Taboca Ltda.,CHUPINGUAIA-RO,RIO TABOCA,Setor Elétrico,Ativo,15553950,1,15,15240309,-12.25940,-61.18890,232.00
439,PCH PRIMAVERA MONTANTE 1,00290 - ELETROCESAR - Eletro Cesar Geração de Energia Ltda,00290 - ELETROCESAR - Eletro Cesar Geração de Energia Ltda,PRIMAVERA DE RONDÔNIA-RO,RIO APEDIA  ou PIMENTA BUENO,Setor Elétrico,Ativo,15555300,1,15,15240310,-11.94750,-61.22000,191.00
440,PCH PRIMAVERA BARRAMENTO,00290 - ELETROCESAR - Eletro Cesar Geração de Energia Ltda,00290 - ELETROCESAR - Eletro Cesar Geração de Energia Ltda,PRIMAVERA DE RONDÔNIA-RO,RIO APEDIA  ou PIMENTA BUENO,Setor Elétrico,Ativo,15555500,1,15,15240310,-11.90390,-61.23310,200.00
441,PCH PRIMAVERA JUSANTE,00290 - ELETROCESAR - Eletro Cesar Geração de Energia Ltda,00290 - ELETROCESAR - Eletro Cesar Geração de Energia Ltda,PRIMAVERA DE RONDÔNIA-RO,RIO APEDIA  ou PIMENTA BUENO,Setor Elétrico,Ativo,15555800,1,15,15240310,-11.90250,-61.23970,194.00
442,PIMENTA BUENO,00082 - CPRM - Cia de Pesquisa de Recursos Minerais,00001 - ANA - Agência Nacional de Águas ,PIMENTA BUENO-RO,RIO APEDIA  ou PIMENTA BUENO,RHN,Ativo,15558000,1,15,15240310,-11.68360,-61.19220,0.00
443,CACOAL,00082 - CPRM - Cia de Pesquisa de Recursos Minerais,00001 - ANA - Agência Nacional de Águas ,CACOAL-RO,RIO PIRARA,RHN,Ativo,15558200,1,15,15240347,-11.44440,-61.44080,160.00
444,FAZENDA APURÚ,00082 - CPRM - Cia de Pesquisa de Recursos Minerais,00001 - ANA - Agência Nacional de Águas ,JI-PARANÁ-RO,RIO URUPA,RHN,Ativo,15558500,1,15,15240425,-11.00170,-62.11720,0.00
445,SÍTIO BELA VISTA,00082 - CPRM - Cia de Pesquisa de Recursos Minerais,00001 - ANA - Agência Nacional de Águas ,PIMENTA BUENO-RO,RIO JI-PARANÁ (ou MACHADO),RHN,Ativo,15559000,1,15,15240000,-11.65250,-61.21500,0.00
446,SÍTIO BELA VISTA,00082 - CPRM - Cia de Pesquisa de Recursos Minerais,00001 - ANA - Agência Nacional de Águas ,PIMENTA BUENO-RO,RIO JI-PARANÁ (ou MACHADO),CotaOnline,Ativo,15559000,1,15,15240000,-11.65250,-61.21500,0.00
447,JI-PARANÁ,00082 - CPRM - Cia de Pesquisa de Recursos Minerais,00001 - ANA - Agência Nacional de Águas ,JI-PARANÁ-RO,RIO JI-PARANÁ (ou MACHADO),CotaOnline,Ativo,15560000,1,15,15240000,-10.87360,-61.93560,129.60
448,JI-PARANÁ,00082 - CPRM - Cia de Pesquisa de Recursos Minerais,00001 - ANA - Agência Nacional de Águas ,JI-PARANÁ-RO,RIO JI-PARANÁ (ou MACHADO),RHN,Ativo,15560000,1,15,15240000,-10.87360,-61.93560,129.60
449,JARUARU,00082 - CPRM - Cia de Pesquisa de Recursos Minerais,00001 - ANA - Agência Nacional de Águas ,JARU-RO,RIO JARU,RHN,Ativo,15564000,1,15,15240500,-10.83170,-62.89250,0.00
450,JARU,00082 - CPRM - Cia de Pesquisa de Recursos Minerais,00001 - ANA - Agência Nacional de Águas ,JARU-RO,RIO JARU,CotaOnline,Ativo,15565000,1,15,15240500,-10.44580,-62.46560,133.00
451,PIRATININGA,00082 - CPRM - Cia de Pesquisa de Recursos Minerais,00001 - ANA - Agência Nacional de Águas ,MACHADINHO D''OESTE-RO,RIO MACHADINHO,RHN,Ativo,15575000,1,15,15240600,-9.34720,-61.93470,0.00
452,TABAJARA,00082 - CPRM - Cia de Pesquisa de Recursos Minerais,00001 - ANA - Agência Nacional de Águas ,MACHADINHO D''OESTE-RO,RIO JI-PARANÁ (ou MACHADO),RHN,Ativo,15580000,1,15,15240000,-8.93220,-62.05560,68.00
453,MINERAÇÃO JACUNDÁ,00082 - CPRM - Cia de Pesquisa de Recursos Minerais,00001 - ANA - Agência Nacional de Águas ,ITAPUÃ DO OESTE-RO,RIO JACUNDÁ,RHN,Ativo,15590000,1,15,15240800,-9.17890,-62.95220,86.00
454,UHE SANTO ANTÔNIO PAPAGAIO,00354 - SANTO ANTÔNIO - Santo Antônio Energia S.A,00354 - SANTO ANTÔNIO - Santo Antônio Energia S.A,PORTO VELHO-RO,RIO MADEIRA,Setor Elétrico,Ativo,15627000,1,15,15200000,-8.18030,-63.09110,53.15
455,ESPÍRITO SANTO,00003 - DNIT - DNIT,00003 - DNIT - DNIT,PORTO VELHO-RO,RIO MADEIRA,RHN,Ativo,15627300,1,15,15200000,-8.19250,-63.13330,33.00
456,CALAMA,00003 - DNIT - DNIT,00003 - DNIT - DNIT,PORTO VELHO-RO,RIO MADEIRA,RHN,Ativo,15627400,1,15,15200000,-8.08060,-62.87810,31.00
457,UHE SANTO ANTÔNIO HUMAITÁ,00354 - SANTO ANTÔNIO - Santo Antônio Energia S.A,00354 - SANTO ANTÔNIO - Santo Antônio Energia S.A,HUMAITÁ-AM,RIO MADEIRA,Setor Elétrico,Ativo,15629000,1,15,15200000,-7.50530,-63.02110,50.44
458,HUMAITÁ,00500 - ÁGUA E SOLO - Água e Solo Estudos e Projetos Ltda.,00001 - ANA - Agência Nacional de Águas ,HUMAITÁ-AM,RIO MADEIRA,RHN,Ativo,15630000,1,15,15200000,-7.50280,-63.01830,0.00
459,HUMAITÁ,00500 - ÁGUA E SOLO - Água e Solo Estudos e Projetos Ltda.,00001 - ANA - Agência Nacional de Águas ,HUMAITÁ-AM,RIO MADEIRA,CotaOnline,Ativo,15630000,1,15,15200000,-7.50280,-63.01830,0.00
460,MAICI-MIRIM,00500 - ÁGUA E SOLO - Água e Solo Estudos e Projetos Ltda.,00001 - ANA - Agência Nacional de Águas ,HUMAITÁ-AM,RIO MAICIMIRIM,RHN,Ativo,15660000,1,15,15250880,-7.63030,-62.65530,0.00
461,PCH JUINA MONTANTE 2,00325 - JURUENA_SA - Juruena Energia S.A.,00325 - JURUENA_SA - Juruena Energia S.A.,JUÍNA-MT,RIO VINTE E UM,Setor Elétrico,Ativo,15710000,1,15,15261250,-11.57780,-59.20580,302.00
462,PCH JUINA MONTANTE 1,00325 - JURUENA_SA - Juruena Energia S.A.,00325 - JURUENA_SA - Juruena Energia S.A.,JUÍNA-MT,RIO CINTA LARGA,Setor Elétrico,Ativo,15720000,1,15,15261280,-11.41310,-59.17030,297.00
463,PCH JUINA BARRAMENTO,00325 - JURUENA_SA - Juruena Energia S.A.,00325 - JURUENA_SA - Juruena Energia S.A.,JUÍNA-MT,RIO ARIPUANÃ,Setor Elétrico,Ativo,15730000,1,15,15260000,-11.31140,-59.22250,271.00
464,PCH JUINA JUSANTE,00325 - JURUENA_SA - Juruena Energia S.A.,00325 - JURUENA_SA - Juruena Energia S.A.,JUÍNA-MT,RIO ARIPUANÃ,Setor Elétrico,Ativo,15740000,1,15,15260000,-11.30970,-59.22360,300.00
465,CGH ARIPUANÃ MONTANTE,00325 - JURUENA_SA - Juruena Energia S.A.,00325 - JURUENA_SA - Juruena Energia S.A.,ARIPUANÃ-MT,RIO ARIPUANÃ,Setor Elétrico,Ativo,15748000,1,15,15260000,-10.32190,-59.46220,227.00
466,UHE DARDANELOS MONTANTE,00531 - ÁGUAS DA PEDRA - Energética Águas da Pedra S.A,00531 - ÁGUAS DA PEDRA - Energética Águas da Pedra S.A,ARIPUANÃ-MT,RIO ARIPUANÃ,Setor Elétrico,Ativo,15750500,1,15,15260000,-10.18310,-59.47190,216.80
467,UHE DARDANELOS BARRAMENTO,00531 - ÁGUAS DA PEDRA - Energética Águas da Pedra S.A,00531 - ÁGUAS DA PEDRA - Energética Águas da Pedra S.A,ARIPUANÃ-MT,RIO ARIPUANÃ,Setor Elétrico,Ativo,15750550,1,15,15260000,-10.16110,-59.46060,218.00
468,UHE DARDANELOS JUSANTE,00531 - ÁGUAS DA PEDRA - Energética Águas da Pedra S.A,00531 - ÁGUAS DA PEDRA - Energética Águas da Pedra S.A,ARIPUANÃ-MT,RIO ARIPUANÃ,Setor Elétrico,Ativo,15750600,1,15,15260000,-10.11000,-59.43720,117.73
469,PCH FAXINAL II MONTANTE,00492 - DARDANELOS - Centrais Elétricas Salto dos Dardanelos S.A,00492 - DARDANELOS - Centrais Elétricas Salto dos Dardanelos S.A,ARIPUANÃ-MT,RIO ARIPUANÃ,Setor Elétrico,Ativo,15753900,1,15,15260000,-10.19860,-59.46860,218.00
470,PCH FAXINAL I JUSANTE,00492 - DARDANELOS - Centrais Elétricas Salto dos Dardanelos S.A,00492 - DARDANELOS - Centrais Elétricas Salto dos Dardanelos S.A,ARIPUANÃ-MT,RIO ARIPUANÃ,Setor Elétrico,Ativo,15754000,1,15,15260000,-10.16470,-59.44670,167.00
471,FAZENDA VISTA ALEGRE,00500 - ÁGUA E SOLO - Água e Solo Estudos e Projetos Ltda.,00001 - ANA - Agência Nacional de Águas ,NOVO ARIPUANÃ-AM,RIO MADEIRA,RHN,Ativo,15860000,1,15,15200000,-4.89720,-60.02530,0.00
472,BORBA,00500 - ÁGUA E SOLO - Água e Solo Estudos e Projetos Ltda.,00001 - ANA - Agência Nacional de Águas ,BORBA-AM,RIO MADEIRA,CotaOnline,Ativo,15900000,1,15,15200000,-4.38920,-59.59860,0.00
473,SANTARÉM SUCUNDURI,00500 - ÁGUA E SOLO - Água e Solo Estudos e Projetos Ltda.,00001 - ANA - Agência Nacional de Águas ,APUÍ-AM,RIO SUCUNDURI,RHN,Ativo,15910000,1,15,15270100,-6.79560,-59.04220,49.00
474,NOVA OLINDA DO NORTE,00500 - ÁGUA E SOLO - Água e Solo Estudos e Projetos Ltda.,00001 - ANA - Agência Nacional de Águas ,NOVA OLINDA DO NORTE-AM,RIO MADEIRA,CotaOnline,Ativo,15940000,1,15,15200000,-3.88470,-59.08970,0.00
475,UHE PITINGA MONTANTE,00588 - TABOCA - Mineração Taboca S.A,00588 - TABOCA - Mineração Taboca S.A,PRESIDENTE FIGUEIREDO-AM,RIO PITINGA,Setor Elétrico,Ativo,16018000,1,16,16261000,-0.58500,-59.77610,128.00
476,UHE PITINGA SERRA,00588 - TABOCA - Mineração Taboca S.A,00588 - TABOCA - Mineração Taboca S.A,PRESIDENTE FIGUEIREDO-AM,IGARAPÉ DA SERRA,Setor Elétrico,Ativo,16019000,1,16,16718200,-0.59560,-59.77720,113.00
477,UHE PITINGA BARRAMENTO,00588 - TABOCA - Mineração Taboca S.A,00588 - TABOCA - Mineração Taboca S.A,PRESIDENTE FIGUEIREDO-AM,RIO PITINGA,Setor Elétrico,Ativo,16020000,1,16,16261000,-0.86580,-59.60470,122.00
478,UHE PITINGA JUSANTE,00588 - TABOCA - Mineração Taboca S.A,00588 - TABOCA - Mineração Taboca S.A,PRESIDENTE FIGUEIREDO-AM,RIO PITINGA,Setor Elétrico,Ativo,16020100,1,16,16261000,-0.86610,-59.60110,70.00
479,UHE BALBINA RIO PITINGA,00075 - ELETRONORTE - ELETRONORTE,00075 - ELETRONORTE - ELETRONORTE,PRESIDENTE FIGUEIREDO-AM,RIO PITINGA,Setor Elétrico,Ativo,16020200,1,16,16261000,-0.99110,-59.47970,58.00
480,UHE BALBINA RIO PITINGUINHA,00075 - ELETRONORTE - ELETRONORTE,00075 - ELETRONORTE - ELETRONORTE,PRESIDENTE FIGUEIREDO-AM,Rio Piting,Setor Elétrico,Ativo,16024900,1,16,16766550,-1.07810,-59.67390,52.00
481,ITACOATIARA,00082 - CPRM - Cia de Pesquisa de Recursos Minerais,00001 - ANA - Agência Nacional de Águas ,ITACOATIARA-AM,RIO SOLIMÕES/AMAZONAS,RHN,Ativo,16030000,1,16,10001000,-3.15390,-58.41140,0.00
482,UHE BALBINA MONTANTE,00075 - ELETRONORTE - ELETRONORTE,00075 - ELETRONORTE - ELETRONORTE,PRESIDENTE FIGUEIREDO-AM,RIO UATUMA,Setor Elétrico,Ativo,16062000,1,16,16260000,-1.21060,-60.23470,51.00
483,UHE BALBINA RIO TUCUMARI,00075 - ELETRONORTE - ELETRONORTE,00075 - ELETRONORTE - ELETRONORTE,PRESIDENTE FIGUEIREDO-AM,Igarapé Tu,Setor Elétrico,Ativo,16070900,1,16,16260050,-1.54750,-59.41500,51.00
484,UHE BALBINA BARRAMENTO,00075 - ELETRONORTE - ELETRONORTE,00075 - ELETRONORTE - ELETRONORTE,PRESIDENTE FIGUEIREDO-AM,RIO UATUMA,Setor Elétrico,Ativo,16070980,1,16,16260000,-1.91610,-59.47560,52.00
485,UHE BALBINA BARRAMENTO CANAL DE FUGA,00075 - ELETRONORTE - ELETRONORTE,00075 - ELETRONORTE - ELETRONORTE,PRESIDENTE FIGUEIREDO-AM,RIO UATUMA,Setor Elétrico,Ativo,16070990,1,16,16260000,-1.91610,-59.47440,0.00
486,UHE BALBINA JUSANTE,00075 - ELETRONORTE - ELETRONORTE,00075 - ELETRONORTE - ELETRONORTE,PRESIDENTE FIGUEIREDO-AM,RIO UATUMA,Setor Elétrico,Ativo,16090000,1,16,16260000,-1.94940,-59.47670,28.00
487,CACHOEIRA MORENA,00082 - CPRM - Cia de Pesquisa de Recursos Minerais,00001 - ANA - Agência Nacional de Águas ,PRESIDENTE FIGUEIREDO-AM,RIO UATUMA,RHN,Ativo,16100000,1,16,16260000,-2.10610,-59.34420,0.00
488,PARINTINS,00082 - CPRM - Cia de Pesquisa de Recursos Minerais,00001 - ANA - Agência Nacional de Águas ,PARINTINS-AM,RIO SOLIMÕES/AMAZONAS,RHN,Ativo,16350002,1,16,10001000,-2.63060,-56.75190,0.00
489,PARINTINS,00082 - CPRM - Cia de Pesquisa de Recursos Minerais,00001 - ANA - Agência Nacional de Águas ,PARINTINS-AM,RIO SOLIMÕES/AMAZONAS,CotaOnline,Ativo,16350002,1,16,10001000,-2.63060,-56.75190,0.00
490,GARGANTA,00082 - CPRM - Cia de Pesquisa de Recursos Minerais,00001 - ANA - Agência Nacional de Águas ,ORIXIMINÁ-PA,RIO TROMBETAS,RHN,Ativo,16430000,1,16,16700000,-0.99780,-57.04310,0.00
491,ESTIRÃO DA ANGÉLICA,00082 - CPRM - Cia de Pesquisa de Recursos Minerais,00001 - ANA - Agência Nacional de Águas ,ORIXIMINÁ-PA,RIO MAPUERA OU URUCURINA,RHN,Ativo,16500000,1,16,16740000,-1.10060,-57.05690,11.83
492,TABULEIRO - REBIO TROMBETAS,00082 - CPRM - Cia de Pesquisa de Recursos Minerais,00001 - ANA - Agência Nacional de Águas ,ORIXIMINÁ-PA,RIO TROMBETAS,RHN,Ativo,16661000,1,16,16700000,-1.37060,-56.85190,0.00
493,VISTA ALEGRE - CONJ 1,00082 - CPRM - Cia de Pesquisa de Recursos Minerais,00001 - ANA - Agência Nacional de Águas ,ORIXIMINÁ-PA,RIO CUMINA / EREPECURU / P.D''OESTE,RHN,Ativo,16800000,1,16,16760000,-1.10140,-56.04000,5.00
494,ORIXIMINÁ,00082 - CPRM - Cia de Pesquisa de Recursos Minerais,00001 - ANA - Agência Nacional de Águas ,ORIXIMINÁ-PA,RIO TROMBETAS,RHN,Ativo,16900000,1,16,16700000,-1.77640,-55.86220,0.00
495,ÓBIDOS,00082 - CPRM - Cia de Pesquisa de Recursos Minerais,00001 - ANA - Agência Nacional de Águas ,ÓBIDOS-PA,RIO SOLIMÕES/AMAZONAS,RHN,Ativo,17050001,1,17,10001000,-1.91920,-55.51310,0.00
496,ÓBIDOS,00082 - CPRM - Cia de Pesquisa de Recursos Minerais,00001 - ANA - Agência Nacional de Águas ,ÓBIDOS-PA,RIO SOLIMÕES/AMAZONAS,CotaOnline,Ativo,17050001,1,17,10001000,-1.91920,-55.51310,0.00
497,PCH SANTA LÚCIA I E II MONTANTE 2,00224 - MAGGI - Maggi Energia S.A.,00224 - MAGGI - Maggi Energia S.A.,CAMPOS DE JÚLIO-MT,RIO JURUENA,Setor Elétrico,Ativo,17090400,1,17,17201000,-13.59560,-59.03250,490.00
498,PCH SANTA LÚCIA I E II MONTANTE 1,00224 - MAGGI - Maggi Energia S.A.,00224 - MAGGI - Maggi Energia S.A.,SAPEZAL-MT,RIO JURUENA,Setor Elétrico,Ativo,17090500,1,17,17201000,-13.55670,-59.02830,479.00
499,PCH SANTA LÚCIA I E II BARRAMENTO,00224 - MAGGI - Maggi Energia S.A.,00224 - MAGGI - Maggi Energia S.A.,SAPEZAL-MT,RIO JURUENA,Setor Elétrico,Ativo,17090580,1,17,17201000,-13.54360,-59.03030,477.00
500,PCH SANTA LÚCIA I E II JUSANTE,00224 - MAGGI - Maggi Energia S.A.,00224 - MAGGI - Maggi Energia S.A.,SAPEZAL-MT,RIO JURUENA,Setor Elétrico,Ativo,17090600,1,17,17201000,-13.54250,-59.02500,466.00
501,PCH SEGREDO MONTANTE,00745 - SEGREDO - Segredo Energia S.A,00745 - SEGREDO - Segredo Energia S.A,CAMPOS DE JÚLIO-MT,RIO JURUENA,Setor Elétrico,Ativo,17091030,1,17,17201000,-13.42280,-59.00140,454.00
502,PCH CIDEZAL BARRAMENTO,00485 - CAMPOS DE JULIO - Campos de Júlio Energia S.A,00485 - CAMPOS DE JULIO - Campos de Júlio Energia S.A,CAMPOS DE JÚLIO-MT,RIO JURUENA,Setor Elétrico,Ativo,17091040,1,17,17201000,-13.36970,-59.01250,416.00
